,capacity,electric_bike_surcharge_waiver,external_id,has_kiosk,lat,lon,name,region_id,rental_url,short_name,station_id,census_block,census_blockgroup,census_tract,census_index
0,35,0,08247b29-1f3f-11e7-bf6b-3863bb334450,1,38.9008,-77.047,21st & I St NW,42,http://app.capitalbikeshare.com/vIiR/zVsfTIsOTF?station_id=27,31205,27,1003,1,010800,0108001
1,19,0,08249be7-1f3f-11e7-bf6b-3863bb334450,1,38.90222120000001,-77.059219,Georgetown Harbor / 30th St NW,42,http://app.capitalbikeshare.com/vIiR/zVsfTIsOTF?station_id=72,31215,72,4042,4,000100,0001004
2,23,0,0824aa39-1f3f-11e7-bf6b-3863bb334450,1,38.900283,-77.029822,13th St & New York Ave NW,42,http://app.capitalbikeshare.com/vIiR/zVsfTIsOTF?station_id=91,31227,91,1019,1,010100,0101001
3,11,0,08246b69-1f3f-11e7-bf6b-3863bb334450,1,38.85725,-77.05332,18th St & S Eads St,41,http://app.capitalbikeshare.com/vIiR/zVsfTIsOTF?station_id=2,31001,2,1001,1,103602,1036021
4,17,0,08246c35-1f3f-11e7-bf6b-3863bb334450,1,38.856425,-77.04923199999999,Crystal Dr & 20th St S,41,http://app.capitalbikeshare.com/vIiR/zVsfTIsOTF?station_id=3,31002,3,5009,5,103402,1034025
5,11,0,08246cd5-1f3f-11e7-bf6b-3863bb334450,1,38.860170000000004,-77.049593,Crystal Dr & 15th St S,41,http://app.capitalbikeshare.com/vIiR/zVsfTIsOTF?station_id=4,31003,4,1006,1,103402,1034021
6,11,0,08246d68-1f3f-11e7-bf6b-3863bb334450,1,38.857865999999994,-77.05949,Aurora Hills Cmty Ctr / 18th St & S Hayes St,41,http://app.capitalbikeshare.com/vIiR/zVsfTIsOTF?station_id=5,31004,5,2001,2,103502,1035022
7,19,0,08246df5-1f3f-11e7-bf6b-3863bb334450,1,38.862303000000004,-77.059936,Pentagon City Metro / 12th St & S Hayes St,41,http://app.capitalbikeshare.com/vIiR/zVsfTIsOTF?station_id=6,31005,6,1002,1,103502,1035021
8,15,0,08246e8c-1f3f-11e7-bf6b-3863bb334450,1,38.8637,-77.0633,Army Navy Dr & S Joyce St,41,http://app.capitalbikeshare.com/vIiR/zVsfTIsOTF?station_id=7,31006,7,1002,1,103502,1035021
9,19,0,08246f1f-1f3f-11e7-bf6b-3863bb334450,1,38.85740496,-77.05113173,Crystal City Metro / 18th St & S Bell St,41,http://app.capitalbikeshare.com/vIiR/zVsfTIsOTF?station_id=8,31007,8,1010,1,103402,1034021
10,11,0,08247052-1f3f-11e7-bf6b-3863bb334450,1,38.848465999999995,-77.051514,Crystal Dr & 27th St S,41,http://app.capitalbikeshare.com/vIiR/zVsfTIsOTF?station_id=10,31009,10,4003,4,103402,1034024
11,11,0,08247269-1f3f-11e7-bf6b-3863bb334450,1,38.8426,-77.0502,S Glebe Rd & Potomac Ave,41,http://app.capitalbikeshare.com/vIiR/zVsfTIsOTF?station_id=11,31010,11,3001,3,103402,1034023
12,17,0,08247310-1f3f-11e7-bf6b-3863bb334450,1,38.8533,-77.0498,Crystal Dr & 23rd St S,41,http://app.capitalbikeshare.com/vIiR/zVsfTIsOTF?station_id=12,31011,12,4000,4,103402,1034024
13,11,0,0824739d-1f3f-11e7-bf6b-3863bb334450,1,38.850688,-77.05152,Clark St & 26th St S,41,http://app.capitalbikeshare.com/vIiR/zVsfTIsOTF?station_id=13,31012,13,4000,4,103402,1034024
14,15,0,0824741d-1f3f-11e7-bf6b-3863bb334450,1,38.9003,-77.0429,19th St & Pennsylvania Ave NW,42,http://app.capitalbikeshare.com/vIiR/zVsfTIsOTF?station_id=14,31100,14,1027,1,010700,0107001
15,31,0,0824749f-1f3f-11e7-bf6b-3863bb334450,1,38.917931,-77.032112,14th & V St NW,42,http://app.capitalbikeshare.com/vIiR/zVsfTIsOTF?station_id=15,31101,15,1006,1,004300,0043001
16,27,0,08247522-1f3f-11e7-bf6b-3863bb334450,1,38.929464,-77.027822,11th & Kenyon St NW,42,http://app.capitalbikeshare.com/vIiR/zVsfTIsOTF?station_id=16,31102,16,1004,1,003000,0030001
17,33,0,082475a9-1f3f-11e7-bf6b-3863bb334450,1,38.926088,-77.036536,16th & Harvard St NW,42,http://app.capitalbikeshare.com/vIiR/zVsfTIsOTF?station_id=17,31103,17,3000,3,003800,0038003
18,15,0,08247632-1f3f-11e7-bf6b-3863bb334450,1,38.922925,-77.04258100000001,Adams Mill & Columbia Rd NW,42,http://app.capitalbikeshare.com/vIiR/zVsfTIsOTF?station_id=18,31104,18,3004,3,003900,0039003
19,19,0,082476ba-1f3f-11e7-bf6b-3863bb334450,1,38.9268,-77.0322,14th & Harvard St NW,42,http://app.capitalbikeshare.com/vIiR/zVsfTIsOTF?station_id=19,31105,19,2002,2,003000,0030002
20,23,0,08247896-1f3f-11e7-bf6b-3863bb334450,1,38.8767,-77.0178,4th & M St SW,42,http://app.capitalbikeshare.com/vIiR/zVsfTIsOTF?station_id=22,31108,22,2042,2,010200,0102002
21,19,0,0824791a-1f3f-11e7-bf6b-3863bb334450,1,38.90985,-77.034438,15th & P St NW,42,http://app.capitalbikeshare.com/vIiR/zVsfTIsOTF?station_id=23,31201,23,4005,4,005201,0052014
22,15,0,0824799f-1f3f-11e7-bf6b-3863bb334450,1,38.912681,-77.032523,14th & R St NW,42,http://app.capitalbikeshare.com/vIiR/zVsfTIsOTF?station_id=24,31202,24,4000,4,005201,0052014
23,23,0,08247a21-1f3f-11e7-bf6b-3863bb334450,1,38.9086,-77.0323,14th & Rhode Island Ave NW,42,http://app.capitalbikeshare.com/vIiR/zVsfTIsOTF?station_id=25,31203,25,3002,3,005201,0052013
24,15,0,08247baa-1f3f-11e7-bf6b-3863bb334450,1,38.936043,-77.024649,Georgia & New Hampshire Ave NW,42,http://app.capitalbikeshare.com/vIiR/zVsfTIsOTF?station_id=28,31400,28,2009,2,002502,0025022
25,19,0,08247c29-1f3f-11e7-bf6b-3863bb334450,1,38.9375,-77.0328,14th St & Spring Rd NW,42,http://app.capitalbikeshare.com/vIiR/zVsfTIsOTF?station_id=29,31401,29,4002,4,002502,0025024
26,11,0,08247cac-1f3f-11e7-bf6b-3863bb334450,1,38.9346,-76.9955,John McCormack Dr & Michigan Ave NE,42,http://app.capitalbikeshare.com/vIiR/zVsfTIsOTF?station_id=30,31502,30,3012,3,009501,0095013
27,19,0,08247d46-1f3f-11e7-bf6b-3863bb334450,1,38.903040000000004,-77.01902700000001,5th & K St NW,42,http://app.capitalbikeshare.com/vIiR/zVsfTIsOTF?station_id=31,31600,31,2008,2,004701,0047012
28,15,0,08247dd0-1f3f-11e7-bf6b-3863bb334450,1,38.8896,-76.9769,19th & East Capitol St SE,42,http://app.capitalbikeshare.com/vIiR/zVsfTIsOTF?station_id=32,31601,32,1024,1,006804,0068041
29,19,0,08247e59-1f3f-11e7-bf6b-3863bb334450,1,38.9308,-77.0315,Park Rd & Holmead Pl NW,42,http://app.capitalbikeshare.com/vIiR/zVsfTIsOTF?station_id=33,31602,33,2009,2,002900,0029002
30,11,0,08247f59-1f3f-11e7-bf6b-3863bb334450,1,38.934267,-77.057979,Connecticut Ave & Newark St NW / Cleveland Park,42,http://app.capitalbikeshare.com/vIiR/zVsfTIsOTF?station_id=35,31305,35,2001,2,000600,0006002
31,11,0,08247fe1-1f3f-11e7-bf6b-3863bb334450,1,38.878,-76.9607,Randle Circle & Minnesota Ave SE,42,http://app.capitalbikeshare.com/vIiR/zVsfTIsOTF?station_id=36,31702,36,2002,2,009901,0099012
32,15,0,0824806c-1f3f-11e7-bf6b-3863bb334450,1,38.897063,-76.947446,Minnesota Ave Metro/DOES,42,http://app.capitalbikeshare.com/vIiR/zVsfTIsOTF?station_id=37,31703,37,1004,1,007803,0078031
33,11,0,082480f1-1f3f-11e7-bf6b-3863bb334450,1,38.901385,-76.941877,Nannie Helen Burroughs & Minnesota Ave NE,42,http://app.capitalbikeshare.com/vIiR/zVsfTIsOTF?station_id=38,31704,38,1002,1,007803,0078031
34,11,0,08248172-1f3f-11e7-bf6b-3863bb334450,1,38.862669,-76.994637,Anacostia Metro,42,http://app.capitalbikeshare.com/vIiR/zVsfTIsOTF?station_id=39,31801,39,1035,1,007401,0074011
35,11,0,0824821f-1f3f-11e7-bf6b-3863bb334450,1,38.867373,-76.988039,Good Hope Rd & MLK Ave SE,42,http://app.capitalbikeshare.com/vIiR/zVsfTIsOTF?station_id=40,31802,40,5016,5,007601,0076015
36,15,0,0824833c-1f3f-11e7-bf6b-3863bb334450,1,38.919077,-77.000648,4th & W St NE,42,http://app.capitalbikeshare.com/vIiR/zVsfTIsOTF?station_id=42,31500,42,1003,1,008702,0087021
37,15,0,082483c2-1f3f-11e7-bf6b-3863bb334450,1,38.9172,-77.0259,10th & U St NW,42,http://app.capitalbikeshare.com/vIiR/zVsfTIsOTF?station_id=43,31111,43,1013,1,004400,0044001
38,11,0,0824844b-1f3f-11e7-bf6b-3863bb334450,1,38.9249,-77.0222,Georgia Ave and Fairmont St NW,42,http://app.capitalbikeshare.com/vIiR/zVsfTIsOTF?station_id=44,31207,44,2004,2,003400,0034002
39,15,0,0824854e-1f3f-11e7-bf6b-3863bb334450,1,38.9154,-77.0446,20th St & Florida Ave NW,42,http://app.capitalbikeshare.com/vIiR/zVsfTIsOTF?station_id=46,31110,46,3002,3,004002,0040023
40,15,0,082485e8-1f3f-11e7-bf6b-3863bb334450,1,38.9155,-77.0222,7th & T St NW,42,http://app.capitalbikeshare.com/vIiR/zVsfTIsOTF?station_id=47,31109,47,2017,2,004400,0044002
41,17,0,082486f0-1f3f-11e7-bf6b-3863bb334450,1,38.8763,-77.0037,M St & New Jersey Ave SE,42,http://app.capitalbikeshare.com/vIiR/zVsfTIsOTF?station_id=49,31208,49,2032,2,007200,0072002
42,15,0,0824927c-1f3f-11e7-bf6b-3863bb334450,1,38.9057,-77.0056,1st & M St NE,42,http://app.capitalbikeshare.com/vIiR/zVsfTIsOTF?station_id=52,31603,52,2004,2,010600,0106002
43,19,0,082492e1-1f3f-11e7-bf6b-3863bb334450,1,38.90534,-77.046774,21st & M St NW,42,http://app.capitalbikeshare.com/vIiR/zVsfTIsOTF?station_id=53,31212,53,1006,1,010700,0107001
44,23,0,08249345-1f3f-11e7-bf6b-3863bb334450,1,38.90276,-77.03863,17th & K St NW,42,http://app.capitalbikeshare.com/vIiR/zVsfTIsOTF?station_id=54,31213,54,1020,1,010700,0107001
45,15,0,082493a5-1f3f-11e7-bf6b-3863bb334450,1,38.899408,-77.015289,3rd & H St NW,42,http://app.capitalbikeshare.com/vIiR/zVsfTIsOTF?station_id=55,31604,55,1008,1,005900,0059001
46,11,0,08249407-1f3f-11e7-bf6b-3863bb334450,1,38.8851,-77.0023,3rd & D St SE,42,http://app.capitalbikeshare.com/vIiR/zVsfTIsOTF?station_id=56,31605,56,1006,1,006500,0065001
47,15,0,08249480-1f3f-11e7-bf6b-3863bb334450,1,38.8803,-76.9862,Potomac & Pennsylvania Ave SE,42,http://app.capitalbikeshare.com/vIiR/zVsfTIsOTF?station_id=57,31606,57,2003,2,007100,0071002
48,15,0,082494e7-1f3f-11e7-bf6b-3863bb334450,1,38.88291548,-76.98790669,13th & E St SE,42,http://app.capitalbikeshare.com/vIiR/zVsfTIsOTF?station_id=58,31607,58,2003,2,006900,0069002
49,19,0,08249549-1f3f-11e7-bf6b-3863bb334450,1,38.9121,-77.0387,17th & Corcoran St NW,42,http://app.capitalbikeshare.com/vIiR/zVsfTIsOTF?station_id=59,31214,59,4001,4,005301,0053014
50,15,0,0824960b-1f3f-11e7-bf6b-3863bb334450,1,38.9126,-77.0135,Florida Ave & R St NW,42,http://app.capitalbikeshare.com/vIiR/zVsfTIsOTF?station_id=61,31503,61,2000,2,004600,0046002
51,11,0,08249671-1f3f-11e7-bf6b-3863bb334450,1,38.8792,-76.9953,8th & Eye St SE / Barracks Row,42,http://app.capitalbikeshare.com/vIiR/zVsfTIsOTF?station_id=62,31608,62,2021,2,007000,0070002
52,15,0,082496d9-1f3f-11e7-bf6b-3863bb334450,1,38.938736,-77.087171,Ward Circle / American University,42,http://app.capitalbikeshare.com/vIiR/zVsfTIsOTF?station_id=63,31301,63,3011,3,000901,0009013
53,19,0,0824973c-1f3f-11e7-bf6b-3863bb334450,1,38.934881,-77.072755,Wisconsin Ave & Newark St NW,42,http://app.capitalbikeshare.com/vIiR/zVsfTIsOTF?station_id=64,31302,64,2007,2,001002,0010022
54,11,0,0824979f-1f3f-11e7-bf6b-3863bb334450,1,38.947774,-77.032818,14th St Heights / 14th & Crittenden St NW,42,http://app.capitalbikeshare.com/vIiR/zVsfTIsOTF?station_id=65,31402,65,2000,2,002501,0025012
55,11,0,0824980b-1f3f-11e7-bf6b-3863bb334450,1,38.865784000000005,-76.9784,Anacostia Library,42,http://app.capitalbikeshare.com/vIiR/zVsfTIsOTF?station_id=66,31804,66,1008,1,007605,0076051
56,11,0,082498ac-1f3f-11e7-bf6b-3863bb334450,1,38.873057,-76.97101500000001,Pennsylvania & Minnesota Ave SE,42,http://app.capitalbikeshare.com/vIiR/zVsfTIsOTF?station_id=67,31805,67,2000,2,007601,0076012
57,15,0,08249a1c-1f3f-11e7-bf6b-3863bb334450,1,38.886952,-76.996806,Eastern Market / 7th & North Carolina Ave SE,42,http://app.capitalbikeshare.com/vIiR/zVsfTIsOTF?station_id=68,31610,68,1020,1,006600,0066001
58,23,0,08249aa2-1f3f-11e7-bf6b-3863bb334450,1,38.899632000000004,-77.031686,14th St & New York Ave NW,42,http://app.capitalbikeshare.com/vIiR/zVsfTIsOTF?station_id=69,31216,69,1028,1,010100,0101001
59,11,0,08249b10-1f3f-11e7-bf6b-3863bb334450,1,38.894,-76.947974,Benning Branch Library,42,http://app.capitalbikeshare.com/vIiR/zVsfTIsOTF?station_id=70,31705,70,2001,2,009603,0096032
60,39,0,08249b7f-1f3f-11e7-bf6b-3863bb334450,1,38.88627695,-77.02824175,USDA / 12th & C St SW,42,http://app.capitalbikeshare.com/vIiR/zVsfTIsOTF?station_id=71,31217,71,2004,2,010200,0102002
61,11,0,08249c5a-1f3f-11e7-bf6b-3863bb334450,1,38.933668,-76.991016,12th & Newton St NE,42,http://app.capitalbikeshare.com/vIiR/zVsfTIsOTF?station_id=73,31501,73,2000,2,009301,0093012
62,31,0,08249dad-1f3f-11e7-bf6b-3863bb334450,1,38.893028,-77.026013,10th St & Constitution Ave NW,42,http://app.capitalbikeshare.com/vIiR/zVsfTIsOTF?station_id=76,31219,76,1024,1,006202,0062021
63,19,0,08249e19-1f3f-11e7-bf6b-3863bb334450,1,38.897293,-77.05556999999999,Kennedy Center,42,http://app.capitalbikeshare.com/vIiR/zVsfTIsOTF?station_id=77,31211,77,1058,1,006202,0062021
64,27,0,08249ef2-1f3f-11e7-bf6b-3863bb334450,1,38.90506687,-77.04177886,18th & M St NW,42,http://app.capitalbikeshare.com/vIiR/zVsfTIsOTF?station_id=79,31221,79,1003,1,010700,0107001
65,15,0,08249f58-1f3f-11e7-bf6b-3863bb334450,1,38.947607,-77.079382,Tenleytown / Wisconsin Ave & Albemarle St NW,42,http://app.capitalbikeshare.com/vIiR/zVsfTIsOTF?station_id=80,31303,80,4026,4,001100,0011004
66,27,0,08249fbc-1f3f-11e7-bf6b-3863bb334450,1,38.90002178,-76.98842168,13th & H St NE,42,http://app.capitalbikeshare.com/vIiR/zVsfTIsOTF?station_id=81,31611,81,1003,1,008402,0084021
67,31,0,0824a28b-1f3f-11e7-bf6b-3863bb334450,1,38.897222,-77.019347,5th & F St NW,42,http://app.capitalbikeshare.com/vIiR/zVsfTIsOTF?station_id=82,31620,82,2008,2,005800,0058002
68,19,0,0824a43b-1f3f-11e7-bf6b-3863bb334450,1,38.89903234,-77.03335404,New York Ave & 15th St NW,42,http://app.capitalbikeshare.com/vIiR/zVsfTIsOTF?station_id=83,31222,83,1027,1,010100,0101001
69,15,0,0824a53f-1f3f-11e7-bf6b-3863bb334450,1,38.927872,-77.043358,Harvard St & Adams Mill Rd NW,42,http://app.capitalbikeshare.com/vIiR/zVsfTIsOTF?station_id=85,31112,85,2002,2,003900,0039002
70,15,0,0824a5b0-1f3f-11e7-bf6b-3863bb334450,1,38.903407,-77.043648,19th & L St NW,42,http://app.capitalbikeshare.com/vIiR/zVsfTIsOTF?station_id=86,31224,86,1013,1,010700,0107001
71,23,0,0824a623-1f3f-11e7-bf6b-3863bb334450,1,38.90375,-77.06269,C & O Canal & Wisconsin Ave NW,42,http://app.capitalbikeshare.com/vIiR/zVsfTIsOTF?station_id=87,31225,87,4022,4,000100,0001004
72,19,0,0824a68f-1f3f-11e7-bf6b-3863bb334450,1,38.8786936,-77.02305436,Maine Ave & 7th St SW,42,http://app.capitalbikeshare.com/vIiR/zVsfTIsOTF?station_id=88,31609,88,2035,2,010200,0102002
73,11,0,0824bb59-1f3f-11e7-bf6b-3863bb334450,1,38.932514000000005,-76.992889,10th & Monroe St NE,42,http://app.capitalbikeshare.com/vIiR/zVsfTIsOTF?station_id=93,31504,93,2007,2,009301,0093012
74,23,0,0824bc00-1f3f-11e7-bf6b-3863bb334450,1,38.910971999999994,-77.00495,Eckington Pl & Q St NE,42,http://app.capitalbikeshare.com/vIiR/zVsfTIsOTF?station_id=94,31505,94,1011,1,008701,0087011
75,19,0,0824bce1-1f3f-11e7-bf6b-3863bb334450,1,38.900412,-77.001949,3rd & H St NE,42,http://app.capitalbikeshare.com/vIiR/zVsfTIsOTF?station_id=96,31616,96,2050,2,010600,0106002
76,15,0,0824c0d5-1f3f-11e7-bf6b-3863bb334450,1,38.900413,-76.982872,Bladensburg Rd & Benning Rd NE,42,http://app.capitalbikeshare.com/vIiR/zVsfTIsOTF?station_id=97,31617,97,2001,2,008904,0089042
77,11,0,0824c1a1-1f3f-11e7-bf6b-3863bb334450,1,38.889955,-77.000349,4th & East Capitol St NE,42,http://app.capitalbikeshare.com/vIiR/zVsfTIsOTF?station_id=98,31618,98,2018,2,008200,0082002
78,25,0,0824c229-1f3f-11e7-bf6b-3863bb334450,1,38.890461,-76.988355,Lincoln Park / 13th & East Capitol St NE,42,http://app.capitalbikeshare.com/vIiR/zVsfTIsOTF?station_id=99,31619,99,2023,2,008002,0080022
79,11,0,0824c29d-1f3f-11e7-bf6b-3863bb334450,1,38.8692,-76.9599,Branch & Pennsylvania Ave SE,42,http://app.capitalbikeshare.com/vIiR/zVsfTIsOTF?station_id=100,31701,100,2021,2,009901,0099012
80,31,0,0824c309-1f3f-11e7-bf6b-3863bb334450,1,38.894832,-76.987633,13th & D St NE,42,http://app.capitalbikeshare.com/vIiR/zVsfTIsOTF?station_id=101,31622,101,2009,2,008001,0080012
81,23,0,0824c376-1f3f-11e7-bf6b-3863bb334450,1,38.91554,-77.03818000000001,New Hampshire Ave & T St NW,42,http://app.capitalbikeshare.com/vIiR/zVsfTIsOTF?station_id=102,31229,102,1005,1,004201,0042011
82,39,0,0824c604-1f3f-11e7-bf6b-3863bb334450,1,38.898364,-77.027869,Metro Center / 12th & G St NW,42,http://app.capitalbikeshare.com/vIiR/zVsfTIsOTF?station_id=103,31230,103,1011,1,005800,0058001
83,25,0,0824c69b-1f3f-11e7-bf6b-3863bb334450,1,38.894514,-77.031617,14th & D St NW / Ronald Reagan Building,42,http://app.capitalbikeshare.com/vIiR/zVsfTIsOTF?station_id=104,31231,104,1025,1,006202,0062021
84,27,0,0824c772-1f3f-11e7-bf6b-3863bb334450,1,38.89731227,-77.0223248,7th & F St NW / National Portrait Gallery,42,http://app.capitalbikeshare.com/vIiR/zVsfTIsOTF?station_id=105,31232,105,1016,1,005800,0058001
85,19,0,0824c8d2-1f3f-11e7-bf6b-3863bb334450,1,38.908905,-77.04478,20th & O St NW / Dupont South,42,http://app.capitalbikeshare.com/vIiR/zVsfTIsOTF?station_id=107,31234,107,5000,5,005500,0055005
86,15,0,0824cb9b-1f3f-11e7-bf6b-3863bb334450,1,38.895344,-77.01610600000001,4th & D St NW / Judiciary Square,42,http://app.capitalbikeshare.com/vIiR/zVsfTIsOTF?station_id=108,31621,108,1028,1,005900,0059001
87,35,0,0824cd3d-1f3f-11e7-bf6b-3863bb334450,1,38.8923,-77.0436,19th St & Constitution Ave NW,42,http://app.capitalbikeshare.com/vIiR/zVsfTIsOTF?station_id=109,31235,109,1045,1,006202,0062021
88,23,0,0824cdb0-1f3f-11e7-bf6b-3863bb334450,1,38.907740000000004,-77.071652,37th & O St NW / Georgetown University,42,http://app.capitalbikeshare.com/vIiR/zVsfTIsOTF?station_id=110,31236,110,1001,1,000201,0002011
89,19,0,0824ce14-1f3f-11e7-bf6b-3863bb334450,1,38.899983,-76.991383,11th & H St NE,42,http://app.capitalbikeshare.com/vIiR/zVsfTIsOTF?station_id=111,31614,111,1004,1,008402,0084021
90,15,0,0824cfe7-1f3f-11e7-bf6b-3863bb334450,1,38.903827,-77.053485,25th St & Pennsylvania Ave NW,42,http://app.capitalbikeshare.com/vIiR/zVsfTIsOTF?station_id=112,31237,112,2005,2,005500,0055002
91,55,0,0824d0c6-1f3f-11e7-bf6b-3863bb334450,1,38.89696,-77.00493,Columbus Circle / Union Station,42,http://app.capitalbikeshare.com/vIiR/zVsfTIsOTF?station_id=113,31623,113,2034,2,010600,0106002
92,23,0,0824d140-1f3f-11e7-bf6b-3863bb334450,1,38.897446,-77.009888,North Capitol St & F St NW,42,http://app.capitalbikeshare.com/vIiR/zVsfTIsOTF?station_id=114,31624,114,1000,1,005900,0059001
93,19,0,0824de05-1f3f-11e7-bf6b-3863bb334450,1,38.905607,-77.027137,11th & M St NW,42,http://app.capitalbikeshare.com/vIiR/zVsfTIsOTF?station_id=115,31266,115,4000,4,005002,0050024
94,15,0,0824e189-1f3f-11e7-bf6b-3863bb334450,1,38.922581,-77.070334,36th & Calvert St NW / Glover Park,42,http://app.capitalbikeshare.com/vIiR/zVsfTIsOTF?station_id=116,31304,116,2019,2,000400,0004002
95,23,0,0824e24c-1f3f-11e7-bf6b-3863bb334450,1,38.898409,-77.032278,14th & G St NW,42,http://app.capitalbikeshare.com/vIiR/zVsfTIsOTF?station_id=117,31238,117,1022,1,005800,0058001
96,19,0,0824e7c1-1f3f-11e7-bf6b-3863bb334450,1,38.896104,-77.049882,23rd & E St NW,42,http://app.capitalbikeshare.com/vIiR/zVsfTIsOTF?station_id=126,31260,126,3006,3,010800,0108003
97,31,0,0824ea2c-1f3f-11e7-bf6b-3863bb334450,1,38.897315,-77.070993,Lynn St & 19th St North,41,http://app.capitalbikeshare.com/vIiR/zVsfTIsOTF?station_id=127,31014,127,3002,3,101603,1016033
98,19,0,0824eb1b-1f3f-11e7-bf6b-3863bb334450,1,38.8946,-77.072305,Rosslyn Metro / Wilson Blvd & Ft Myer Dr,41,http://app.capitalbikeshare.com/vIiR/zVsfTIsOTF?station_id=128,31015,128,2001,2,101702,1017022
99,15,0,0824eba7-1f3f-11e7-bf6b-3863bb334450,1,38.893438,-77.076389,Clarendon Blvd & Pierce St,41,http://app.capitalbikeshare.com/vIiR/zVsfTIsOTF?station_id=129,31016,129,2013,2,101702,1017022
100,15,0,0824ee0d-1f3f-11e7-bf6b-3863bb334450,1,38.891696,-77.0846,Wilson Blvd & N Uhle St,41,http://app.capitalbikeshare.com/vIiR/zVsfTIsOTF?station_id=130,31017,130,2001,2,101602,1016022
101,11,0,0824eea3-1f3f-11e7-bf6b-3863bb334450,1,38.892164,-77.079375,Rhodes St & 16th St N,41,http://app.capitalbikeshare.com/vIiR/zVsfTIsOTF?station_id=131,31018,131,3006,3,101702,1017023
102,15,0,0824f08b-1f3f-11e7-bf6b-3863bb334450,1,38.865590000000005,-76.95210300000001,Fairfax Village,42,http://app.capitalbikeshare.com/vIiR/zVsfTIsOTF?station_id=132,31706,132,2000,2,007604,0076042
103,15,0,0824f16b-1f3f-11e7-bf6b-3863bb334450,1,38.892459,-77.04656700000001,21st St & Constitution Ave NW,42,http://app.capitalbikeshare.com/vIiR/zVsfTIsOTF?station_id=133,31261,133,1046,1,006202,0062021
104,15,0,0824f3d6-1f3f-11e7-bf6b-3863bb334450,1,38.889,-77.0925,Wilson Blvd & N Edgewood St,41,http://app.capitalbikeshare.com/vIiR/zVsfTIsOTF?station_id=134,31019,134,3010,3,101500,1015003
105,19,0,0824f461-1f3f-11e7-bf6b-3863bb334450,1,38.920669000000004,-77.04368000000001,Columbia Rd & Belmont St NW,42,http://app.capitalbikeshare.com/vIiR/zVsfTIsOTF?station_id=135,31113,135,1000,1,004002,0040021
106,23,0,0824f644-1f3f-11e7-bf6b-3863bb334450,1,38.905995700000005,-77.03980207,Rhode Island & Connecticut Ave NW,42,http://app.capitalbikeshare.com/vIiR/zVsfTIsOTF?station_id=136,31239,136,2017,2,010700,0107002
107,33,0,0824f8a2-1f3f-11e7-bf6b-3863bb334450,1,38.9059,-77.0325,Thomas Circle,42,http://app.capitalbikeshare.com/vIiR/zVsfTIsOTF?station_id=137,31241,137,1002,1,005201,0052011
108,15,0,0824fd71-1f3f-11e7-bf6b-3863bb334450,1,38.8881,-77.09308,Clarendon Blvd & N Fillmore St,41,http://app.capitalbikeshare.com/vIiR/zVsfTIsOTF?station_id=139,31021,139,1001,1,101801,1018011
109,17,0,0824ff6e-1f3f-11e7-bf6b-3863bb334450,1,38.887859999999996,-77.094875,Clarendon Metro / Wilson Blvd & N Highland St,41,http://app.capitalbikeshare.com/vIiR/zVsfTIsOTF?station_id=140,31022,140,3008,3,101500,1015003
110,27,0,08250172-1f3f-11e7-bf6b-3863bb334450,1,38.89968,-77.041539,18th St & Pennsylvania Ave NW,42,http://app.capitalbikeshare.com/vIiR/zVsfTIsOTF?station_id=141,31242,141,1031,1,010700,0107001
111,39,0,08250371-1f3f-11e7-bf6b-3863bb334450,1,38.88637194,-77.01770067,4th & C St SW,42,http://app.capitalbikeshare.com/vIiR/zVsfTIsOTF?station_id=142,31243,142,1004,1,010200,0102001
112,19,0,082513a4-1f3f-11e7-bf6b-3863bb334450,1,38.88412,-77.017445,4th & E St SW,42,http://app.capitalbikeshare.com/vIiR/zVsfTIsOTF?station_id=143,31244,143,2021,2,010500,0105002
113,19,0,08251448-1f3f-11e7-bf6b-3863bb334450,1,38.881184999999995,-77.001828,3rd & G St SE,42,http://app.capitalbikeshare.com/vIiR/zVsfTIsOTF?station_id=144,31625,144,1006,1,007000,0070001
114,15,0,08251532-1f3f-11e7-bf6b-3863bb334450,1,38.9418,-77.0251,9th & Upshur St NW,42,http://app.capitalbikeshare.com/vIiR/zVsfTIsOTF?station_id=146,31404,146,3007,3,002400,0024003
115,15,0,082515d4-1f3f-11e7-bf6b-3863bb334450,1,38.915417,-77.012289,1st & Rhode Island Ave NW,42,http://app.capitalbikeshare.com/vIiR/zVsfTIsOTF?station_id=147,31506,147,1002,1,003302,0033021
116,19,0,0825164b-1f3f-11e7-bf6b-3863bb334450,1,38.92812111,-77.02379465,Columbia Rd & Georgia Ave NW,42,http://app.capitalbikeshare.com/vIiR/zVsfTIsOTF?station_id=148,31115,148,1013,1,003100,0031001
117,19,0,0825176c-1f3f-11e7-bf6b-3863bb334450,1,38.889934999999994,-76.93723,Benning Rd & East Capitol St NE / Benning Rd Metro,42,http://app.capitalbikeshare.com/vIiR/zVsfTIsOTF?station_id=150,31707,150,3011,3,007803,0078033
118,15,0,0825180e-1f3f-11e7-bf6b-3863bb334450,1,38.930282,-77.055599,3000 Connecticut Ave NW / National Zoo,42,http://app.capitalbikeshare.com/vIiR/zVsfTIsOTF?station_id=151,31307,151,2006,2,000502,0005022
119,15,0,08251a1b-1f3f-11e7-bf6b-3863bb334450,1,38.88732,-76.98356899999999,15th St & Massachusetts Ave SE,42,http://app.capitalbikeshare.com/vIiR/zVsfTIsOTF?station_id=154,31626,154,2005,2,006801,0068012
120,15,0,08251aba-1f3f-11e7-bf6b-3863bb334450,1,38.844711,-76.98782299999999,Congress Heights Metro,42,http://app.capitalbikeshare.com/vIiR/zVsfTIsOTF?station_id=155,31806,155,1005,1,007304,0073041
121,11,0,08251bba-1f3f-11e7-bf6b-3863bb334450,1,38.876393,-77.10773499999999,N Quincy St & Glebe Rd,41,http://app.capitalbikeshare.com/vIiR/zVsfTIsOTF?station_id=156,31035,156,1010,1,102002,1020021
122,11,0,08251c45-1f3f-11e7-bf6b-3863bb334450,1,38.85033658,-77.10098863,Barcroft Community Center,41,http://app.capitalbikeshare.com/vIiR/zVsfTIsOTF?station_id=157,31033,157,1001,1,102802,1028021
123,15,0,08251cd1-1f3f-11e7-bf6b-3863bb334450,1,38.896923,-77.086502,N Veitch St & 20th St N,41,http://app.capitalbikeshare.com/vIiR/zVsfTIsOTF?station_id=158,31029,158,1000,1,101500,1015001
124,11,0,08251ded-1f3f-11e7-bf6b-3863bb334450,1,38.885801,-77.09774499999999,Fairfax Dr & Wilson Blvd,41,http://app.capitalbikeshare.com/vIiR/zVsfTIsOTF?station_id=160,31023,160,3021,3,101500,1015003
125,11,0,08251e7d-1f3f-11e7-bf6b-3863bb334450,1,38.896355,-77.078408,Key Blvd & N Quinn St,41,http://app.capitalbikeshare.com/vIiR/zVsfTIsOTF?station_id=161,31027,161,2000,2,101603,1016032
126,15,0,08251f03-1f3f-11e7-bf6b-3863bb334450,1,38.87885438,-77.00572729,1st & K St SE,42,http://app.capitalbikeshare.com/vIiR/zVsfTIsOTF?station_id=162,31628,162,1023,1,007200,0072001
127,19,0,08251f93-1f3f-11e7-bf6b-3863bb334450,1,38.922649,-77.077271,39th & Calvert St NW / Stoddert,42,http://app.capitalbikeshare.com/vIiR/zVsfTIsOTF?station_id=163,31306,163,1006,1,000702,0007021
128,15,0,0825201c-1f3f-11e7-bf6b-3863bb334450,1,38.928743,-77.012457,1st & Washington Hospital Center NW,42,http://app.capitalbikeshare.com/vIiR/zVsfTIsOTF?station_id=164,31507,164,1028,1,002302,0023021
129,19,0,082520aa-1f3f-11e7-bf6b-3863bb334450,1,38.882788,-77.103148,Virginia Square Metro / Monroe St & 9th St N,41,http://app.capitalbikeshare.com/vIiR/zVsfTIsOTF?station_id=165,31024,165,1004,1,101404,1014041
130,11,0,0825213e-1f3f-11e7-bf6b-3863bb334450,1,38.88397,-77.10783,Central Library / Quincy St & 10th St N,41,http://app.capitalbikeshare.com/vIiR/zVsfTIsOTF?station_id=166,31025,166,1007,1,101404,1014041
131,23,0,08252260-1f3f-11e7-bf6b-3863bb334450,1,38.888553,-77.03242900000001,Jefferson Dr & 14th St SW,42,http://app.capitalbikeshare.com/vIiR/zVsfTIsOTF?station_id=168,31247,168,1152,1,006202,0062021
132,35,0,082522f0-1f3f-11e7-bf6b-3863bb334450,1,38.888767,-77.02858,Smithsonian-National Mall / Jefferson Dr & 12th St SW,42,http://app.capitalbikeshare.com/vIiR/zVsfTIsOTF?station_id=169,31248,169,1150,1,006202,0062021
133,15,0,08252387-1f3f-11e7-bf6b-3863bb334450,1,38.87887,-77.1207,George Mason Dr & Wilson Blvd,41,http://app.capitalbikeshare.com/vIiR/zVsfTIsOTF?station_id=170,31036,170,1006,1,101401,1014011
134,19,0,08252414-1f3f-11e7-bf6b-3863bb334450,1,38.894573,-77.01994,6th St & Indiana Ave NW,42,http://app.capitalbikeshare.com/vIiR/zVsfTIsOTF?station_id=171,31264,171,2013,2,005800,0058002
135,11,0,082524a2-1f3f-11e7-bf6b-3863bb334450,1,38.893237,-77.086063,N Veitch St & Key Blvd,41,http://app.capitalbikeshare.com/vIiR/zVsfTIsOTF?station_id=172,31028,172,2001,2,101602,1016022
136,19,0,08252530-1f3f-11e7-bf6b-3863bb334450,1,38.89593,-77.08900600000001,Lee Hwy & N Adams St,41,http://app.capitalbikeshare.com/vIiR/zVsfTIsOTF?station_id=173,31030,173,1000,1,101500,1015001
137,11,0,082525bb-1f3f-11e7-bf6b-3863bb334450,1,38.89054,-77.08095,15th St & N Scott St,41,http://app.capitalbikeshare.com/vIiR/zVsfTIsOTF?station_id=174,31031,174,4002,4,101701,1017014
138,11,0,08252645-1f3f-11e7-bf6b-3863bb334450,1,38.88081,-77.09079200000001,Washington Blvd & 7th St N,41,http://app.capitalbikeshare.com/vIiR/zVsfTIsOTF?station_id=175,31032,175,1010,1,101803,1018031
139,23,0,082526d1-1f3f-11e7-bf6b-3863bb334450,1,38.881044,-77.11176800000001,Ballston Metro / Stuart St & 9th St N,41,http://app.capitalbikeshare.com/vIiR/zVsfTIsOTF?station_id=176,31037,176,1000,1,101403,1014031
140,11,0,0825275b-1f3f-11e7-bf6b-3863bb334450,1,38.882629,-77.10936600000001,Fairfax Dr & N Randolph St,41,http://app.capitalbikeshare.com/vIiR/zVsfTIsOTF?station_id=177,31034,177,4000,4,101403,1014034
141,23,0,082527e7-1f3f-11e7-bf6b-3863bb334450,1,38.879819,-77.037413,Jefferson Memorial,42,http://app.capitalbikeshare.com/vIiR/zVsfTIsOTF?station_id=178,31249,178,1222,1,006202,0062021
142,15,0,08252874-1f3f-11e7-bf6b-3863bb334450,1,38.866611,-76.985238,Good Hope Rd & 14th St SE,42,http://app.capitalbikeshare.com/vIiR/zVsfTIsOTF?station_id=179,31803,179,1001,1,007503,0075031
143,11,0,082528fb-1f3f-11e7-bf6b-3863bb334450,1,38.883921,-77.116817,Glebe Rd & 11th St N,41,http://app.capitalbikeshare.com/vIiR/zVsfTIsOTF?station_id=180,31038,180,1000,1,101401,1014011
144,15,0,08252a00-1f3f-11e7-bf6b-3863bb334450,1,38.880012,-77.107854,Wilson Blvd & N Quincy St,41,http://app.capitalbikeshare.com/vIiR/zVsfTIsOTF?station_id=181,31039,181,4002,4,101403,1014034
145,11,0,08252a92-1f3f-11e7-bf6b-3863bb334450,1,38.884615999999994,-77.10108000000001,GMU / Fairfax Dr & Kenmore St,41,http://app.capitalbikeshare.com/vIiR/zVsfTIsOTF?station_id=182,31040,182,4014,4,101500,1015004
146,19,0,08252b28-1f3f-11e7-bf6b-3863bb334450,1,38.90509,-76.9941,Gallaudet / 8th St & Florida Ave NE,42,http://app.capitalbikeshare.com/vIiR/zVsfTIsOTF?station_id=183,31508,183,1018,1,008803,0088031
147,19,0,08252c4a-1f3f-11e7-bf6b-3863bb334450,1,38.903584,-77.044789,20th & L St NW,42,http://app.capitalbikeshare.com/vIiR/zVsfTIsOTF?station_id=185,31250,185,1013,1,010700,0107001
148,19,0,082537e4-1f3f-11e7-bf6b-3863bb334450,1,38.903819,-77.0284,12th & L St NW,42,http://app.capitalbikeshare.com/vIiR/zVsfTIsOTF?station_id=186,31251,186,1004,1,010100,0101001
149,19,0,0825388d-1f3f-11e7-bf6b-3863bb334450,1,38.901539,-77.046564,21st St & Pennsylvania Ave NW,42,http://app.capitalbikeshare.com/vIiR/zVsfTIsOTF?station_id=187,31252,187,1011,1,010700,0107001
150,23,0,08253908-1f3f-11e7-bf6b-3863bb334450,1,38.902204,-77.04337,19th & K St NW,42,http://app.capitalbikeshare.com/vIiR/zVsfTIsOTF?station_id=188,31253,188,1017,1,010700,0107001
151,19,0,08253976-1f3f-11e7-bf6b-3863bb334450,1,38.803124,-77.040363,Prince St & Union St,40,http://app.capitalbikeshare.com/vIiR/zVsfTIsOTF?station_id=189,31041,189,1029,1,201900,2019001
152,15,0,082539e0-1f3f-11e7-bf6b-3863bb334450,1,38.804718,-77.043363,Market Square / King St & Royal St,40,http://app.capitalbikeshare.com/vIiR/zVsfTIsOTF?station_id=190,31042,190,1004,1,201900,2019001
153,15,0,08253ab7-1f3f-11e7-bf6b-3863bb334450,1,38.805316999999995,-77.049883,King St & Patrick St,40,http://app.capitalbikeshare.com/vIiR/zVsfTIsOTF?station_id=192,31044,192,1011,1,201900,2019001
154,27,0,08253b2b-1f3f-11e7-bf6b-3863bb334450,1,38.902,-77.03353,15th & K St NW,42,http://app.capitalbikeshare.com/vIiR/zVsfTIsOTF?station_id=193,31254,193,1015,1,010100,0101001
155,17,0,08253c00-1f3f-11e7-bf6b-3863bb334450,1,38.811456,-77.050276,Henry St & Pendleton St,40,http://app.capitalbikeshare.com/vIiR/zVsfTIsOTF?station_id=195,31046,195,2013,2,201600,2016002
156,29,0,08253c6b-1f3f-11e7-bf6b-3863bb334450,1,38.814577,-77.052808,Braddock Rd Metro,40,http://app.capitalbikeshare.com/vIiR/zVsfTIsOTF?station_id=196,31047,196,2004,2,201600,2016002
157,15,0,08253e02-1f3f-11e7-bf6b-3863bb334450,1,38.9066,-77.05152,24th & N St NW,42,http://app.capitalbikeshare.com/vIiR/zVsfTIsOTF?station_id=198,31255,198,2002,2,005500,0055002
158,15,0,08253e7e-1f3f-11e7-bf6b-3863bb334450,1,38.895914000000005,-77.026064,10th & E St NW,42,http://app.capitalbikeshare.com/vIiR/zVsfTIsOTF?station_id=199,31256,199,1029,1,005800,0058001
159,15,0,08254037-1f3f-11e7-bf6b-3863bb334450,1,38.90088,-77.048911,22nd & I St NW / Foggy Bottom,42,http://app.capitalbikeshare.com/vIiR/zVsfTIsOTF?station_id=200,31257,200,1004,1,010800,0108001
160,11,0,082540b2-1f3f-11e7-bf6b-3863bb334450,1,38.883669,-77.113905,Utah St & 11th St N,41,http://app.capitalbikeshare.com/vIiR/zVsfTIsOTF?station_id=201,31049,201,2003,2,101402,1014022
161,11,0,08254123-1f3f-11e7-bf6b-3863bb334450,1,38.884961,-77.08776999999999,Barton St & 10th St N,41,http://app.capitalbikeshare.com/vIiR/zVsfTIsOTF?station_id=202,31050,202,4002,4,101802,1018024
162,11,0,08254215-1f3f-11e7-bf6b-3863bb334450,1,38.889365000000005,-77.077294,Arlington Blvd & N Queen St,41,http://app.capitalbikeshare.com/vIiR/zVsfTIsOTF?station_id=203,31051,203,1001,1,101703,1017031
163,25,0,08254284-1f3f-11e7-bf6b-3863bb334450,1,38.888251000000004,-77.049426,Lincoln Memorial,42,http://app.capitalbikeshare.com/vIiR/zVsfTIsOTF?station_id=204,31258,204,1162,1,006202,0062021
164,15,0,082543d4-1f3f-11e7-bf6b-3863bb334450,1,38.894721999999994,-77.045128,20th St & Virginia Ave NW,42,http://app.capitalbikeshare.com/vIiR/zVsfTIsOTF?station_id=206,31259,206,2020,2,010800,0108002
165,19,0,08254442-1f3f-11e7-bf6b-3863bb334450,1,38.900929999999995,-77.018677,5th St & Massachusetts Ave NW,42,http://app.capitalbikeshare.com/vIiR/zVsfTIsOTF?station_id=207,31265,207,1011,1,005900,0059001
166,15,0,082544b7-1f3f-11e7-bf6b-3863bb334450,1,38.943837,-77.077078,39th & Veazey St NW,42,http://app.capitalbikeshare.com/vIiR/zVsfTIsOTF?station_id=208,31308,208,4024,4,001200,0012004
167,15,0,08254529-1f3f-11e7-bf6b-3863bb334450,1,38.954812,-77.082426,Fessenden St & Wisconsin Ave NW,42,http://app.capitalbikeshare.com/vIiR/zVsfTIsOTF?station_id=209,31309,209,2028,2,001100,0011002
168,23,0,0825459a-1f3f-11e7-bf6b-3863bb334450,1,38.90546971,-77.00213045,3rd & M St NE,42,http://app.capitalbikeshare.com/vIiR/zVsfTIsOTF?station_id=210,31627,210,2011,2,010600,0106002
169,15,0,0825460b-1f3f-11e7-bf6b-3863bb334450,1,38.863833,-77.08031899999999,Columbia Pike & S Courthouse Rd,41,http://app.capitalbikeshare.com/vIiR/zVsfTIsOTF?station_id=211,31053,211,1001,1,103200,1032001
170,11,0,0825467b-1f3f-11e7-bf6b-3863bb334450,1,38.857803000000004,-77.086733,Walter Reed Dr & 16th St S,41,http://app.capitalbikeshare.com/vIiR/zVsfTIsOTF?station_id=212,31054,212,4009,4,103200,1032004
171,15,0,082546fc-1f3f-11e7-bf6b-3863bb334450,1,38.846222,-77.069275,28th St & S Meade St,41,http://app.capitalbikeshare.com/vIiR/zVsfTIsOTF?station_id=213,31055,213,3001,3,103800,1038003
172,23,0,08254770-1f3f-11e7-bf6b-3863bb334450,1,38.918809,-77.04157099999999,18th St & Wyoming Ave NW,42,http://app.capitalbikeshare.com/vIiR/zVsfTIsOTF?station_id=214,31114,214,2004,2,003800,0038002
173,15,0,082547de-1f3f-11e7-bf6b-3863bb334450,1,38.95655555,-77.01981425,5th & Kennedy St NW,42,http://app.capitalbikeshare.com/vIiR/zVsfTIsOTF?station_id=215,31403,215,6003,6,002102,0021026
174,19,0,082548ce-1f3f-11e7-bf6b-3863bb334450,1,38.949662,-77.027333,Georgia Ave & Emerson St NW,42,http://app.capitalbikeshare.com/vIiR/zVsfTIsOTF?station_id=216,31405,216,1015,1,002002,0020021
175,19,0,08254943-1f3f-11e7-bf6b-3863bb334450,1,38.942015999999995,-77.032652,14th & Upshur St NW,42,http://app.capitalbikeshare.com/vIiR/zVsfTIsOTF?station_id=217,31406,217,1007,1,002501,0025011
176,19,0,082549b0-1f3f-11e7-bf6b-3863bb334450,1,38.956432,-77.032947,14th St & Colorado Ave NW,42,http://app.capitalbikeshare.com/vIiR/zVsfTIsOTF?station_id=218,31407,218,2005,2,002002,0020022
177,11,0,08254a1e-1f3f-11e7-bf6b-3863bb334450,1,38.847977,-77.07510400000001,Troy St & 26th St S,41,http://app.capitalbikeshare.com/vIiR/zVsfTIsOTF?station_id=219,31056,219,2001,2,103800,1038002
178,11,0,08254c82-1f3f-11e7-bf6b-3863bb334450,1,38.860789000000004,-77.09586,Columbia Pike & S Oakland St,41,http://app.capitalbikeshare.com/vIiR/zVsfTIsOTF?station_id=221,31058,221,4016,4,102302,1023024
179,11,0,08254d7e-1f3f-11e7-bf6b-3863bb334450,1,38.847359999999995,-77.095431,Four Mile Run Dr & S Walter Reed Dr,41,http://app.capitalbikeshare.com/vIiR/zVsfTIsOTF?station_id=222,31059,222,1002,1,102702,1027021
180,15,0,08254dee-1f3f-11e7-bf6b-3863bb334450,1,38.84232,-77.089555,S Arlington Mill Dr & Campbell Ave,41,http://app.capitalbikeshare.com/vIiR/zVsfTIsOTF?station_id=223,31060,223,2002,2,102901,1029012
181,11,0,08254e55-1f3f-11e7-bf6b-3863bb334450,1,38.848454,-77.084918,Kenmore St & 24th St S,41,http://app.capitalbikeshare.com/vIiR/zVsfTIsOTF?station_id=224,31061,224,2010,2,103100,1031002
182,15,0,08254ebb-1f3f-11e7-bf6b-3863bb334450,1,38.986999999999995,-77.02941700000001,13th St & Eastern Ave,44,http://app.capitalbikeshare.com/vIiR/zVsfTIsOTF?station_id=225,32006,225,4013,4,702500,7025004
183,19,0,08254f20-1f3f-11e7-bf6b-3863bb334450,1,38.90849,-77.063586,Wisconsin Ave & O St NW,42,http://app.capitalbikeshare.com/vIiR/zVsfTIsOTF?station_id=226,31312,226,3005,3,000100,0001003
184,13,0,08254f8e-1f3f-11e7-bf6b-3863bb334450,1,38.896553000000004,-77.06714000000001,Roosevelt Island,41,http://app.capitalbikeshare.com/vIiR/zVsfTIsOTF?station_id=227,31062,227,1000,1,980100,9801001
185,23,0,08254ffb-1f3f-11e7-bf6b-3863bb334450,1,38.955016,-77.069956,Connecticut & Nebraska Ave NW,42,http://app.capitalbikeshare.com/vIiR/zVsfTIsOTF?station_id=228,31310,228,3009,3,001100,0011003
186,19,0,08255063-1f3f-11e7-bf6b-3863bb334450,1,38.908142,-77.038359,17th St & Massachusetts Ave NW,42,http://app.capitalbikeshare.com/vIiR/zVsfTIsOTF?station_id=229,31267,229,3003,3,005301,0053013
187,15,0,0825525a-1f3f-11e7-bf6b-3863bb334450,1,38.92333,-77.0352,15th & Euclid St  NW,42,http://app.capitalbikeshare.com/vIiR/zVsfTIsOTF?station_id=230,31117,230,1002,1,003700,0037001
188,11,0,082553a7-1f3f-11e7-bf6b-3863bb334450,1,38.889988,-76.995193,8th & East Capitol St NE,42,http://app.capitalbikeshare.com/vIiR/zVsfTIsOTF?station_id=231,31629,231,1005,1,008200,0082001
189,15,0,08255427-1f3f-11e7-bf6b-3863bb334450,1,38.912659000000005,-77.017669,New Jersey Ave & R St NW,42,http://app.capitalbikeshare.com/vIiR/zVsfTIsOTF?station_id=232,31509,232,1009,1,004801,0048011
190,11,0,0825548f-1f3f-11e7-bf6b-3863bb334450,1,38.889908,-76.983326,15th & East Capitol St NE,42,http://app.capitalbikeshare.com/vIiR/zVsfTIsOTF?station_id=233,31630,233,1012,1,008002,0080021
191,15,0,082554fb-1f3f-11e7-bf6b-3863bb334450,1,38.897273999999996,-76.994749,8th & F St NE,42,http://app.capitalbikeshare.com/vIiR/zVsfTIsOTF?station_id=234,31631,234,2006,2,008402,0084022
192,15,0,08255561-1f3f-11e7-bf6b-3863bb334450,1,38.927095,-76.97892399999999,18th St & Rhode Island Ave NE,42,http://app.capitalbikeshare.com/vIiR/zVsfTIsOTF?station_id=235,31510,235,2019,2,011100,0111002
193,19,0,0825610d-1f3f-11e7-bf6b-3863bb334450,1,38.897195,-76.983575,15th & F St NE,42,http://app.capitalbikeshare.com/vIiR/zVsfTIsOTF?station_id=236,31632,236,4002,4,007901,0079014
194,15,0,0825619c-1f3f-11e7-bf6b-3863bb334450,1,38.928644,-76.990955,12th & Irving St NE,42,http://app.capitalbikeshare.com/vIiR/zVsfTIsOTF?station_id=237,31511,237,2022,2,009301,0093012
195,11,0,08256549-1f3f-11e7-bf6b-3863bb334450,1,38.863896999999994,-76.990037,Pleasant St & MLK Ave SE,42,http://app.capitalbikeshare.com/vIiR/zVsfTIsOTF?station_id=240,31807,240,1017,1,007503,0075031
196,15,0,082565f9-1f3f-11e7-bf6b-3863bb334450,1,38.903732,-76.987211,Neal St & Trinidad Ave NE,42,http://app.capitalbikeshare.com/vIiR/zVsfTIsOTF?station_id=241,31512,241,3003,3,008802,0088023
197,31,0,08256670-1f3f-11e7-bf6b-3863bb334450,1,38.916787,-77.028139,12th & U St NW,42,http://app.capitalbikeshare.com/vIiR/zVsfTIsOTF?station_id=242,31268,242,2006,2,004400,0044002
198,11,0,082566d7-1f3f-11e7-bf6b-3863bb334450,1,38.852247999999996,-77.10502199999999,S George Mason & Four Mile Run Dr,41,http://app.capitalbikeshare.com/vIiR/zVsfTIsOTF?station_id=243,31063,243,5001,5,102801,1028015
199,11,0,0825697c-1f3f-11e7-bf6b-3863bb334450,1,38.880705,-77.08596,Pershing Dr & Wayne St,41,http://app.capitalbikeshare.com/vIiR/zVsfTIsOTF?station_id=245,31065,245,2001,2,101803,1018032
200,11,0,082569e6-1f3f-11e7-bf6b-3863bb334450,1,38.867262,-77.072315,Columbia Pike & S Orme St,41,http://app.capitalbikeshare.com/vIiR/zVsfTIsOTF?station_id=246,31066,246,1009,1,102500,1025001
201,15,0,08256ac9-1f3f-11e7-bf6b-3863bb334450,1,38.894851,-77.02324,8th & D St NW,42,http://app.capitalbikeshare.com/vIiR/zVsfTIsOTF?station_id=248,31270,248,1027,1,005800,0058001
202,15,0,08256b2e-1f3f-11e7-bf6b-3863bb334450,1,38.917621999999994,-77.01597,3rd & Elm St NW,42,http://app.capitalbikeshare.com/vIiR/zVsfTIsOTF?station_id=249,31118,249,1001,1,003400,0034001
203,19,0,08256b90-1f3f-11e7-bf6b-3863bb334450,1,38.918155,-77.004746,Rhode Island Ave & V St NE,42,http://app.capitalbikeshare.com/vIiR/zVsfTIsOTF?station_id=250,31513,250,2000,2,008701,0087012
204,27,0,08256d91-1f3f-11e7-bf6b-3863bb334450,1,38.892275,-77.013917,Constitution Ave & 2nd St NW/DOL,42,http://app.capitalbikeshare.com/vIiR/zVsfTIsOTF?station_id=251,31271,251,1033,1,005900,0059001
205,31,0,08256e11-1f3f-11e7-bf6b-3863bb334450,1,38.886978000000006,-77.013769,Washington & Independence Ave SW/HHS,42,http://app.capitalbikeshare.com/vIiR/zVsfTIsOTF?station_id=252,31272,252,2000,2,010500,0105002
206,15,0,08256e7b-1f3f-11e7-bf6b-3863bb334450,1,38.887312,-77.025762,Independence Ave & L'Enfant Plaza SW/DOE,42,http://app.capitalbikeshare.com/vIiR/zVsfTIsOTF?station_id=253,31633,253,2001,2,010200,0102002
207,15,0,08256ee8-1f3f-11e7-bf6b-3863bb334450,1,38.927496999999995,-76.997194,Hamlin & 7th St NE,42,http://app.capitalbikeshare.com/vIiR/zVsfTIsOTF?station_id=254,31514,254,1004,1,009201,0092011
208,12,0,08256fcd-1f3f-11e7-bf6b-3863bb334450,1,38.862478,-77.08659899999999,Columbia Pike & S Walter Reed Dr,41,http://app.capitalbikeshare.com/vIiR/zVsfTIsOTF?station_id=255,31067,255,4000,4,103200,1032004
209,15,0,08257239-1f3f-11e7-bf6b-3863bb334450,1,38.856319,-77.11153,Arlington Mill Cmty Center / Columbia Pike & S Dinwiddie St,41,http://app.capitalbikeshare.com/vIiR/zVsfTIsOTF?station_id=256,31068,256,3001,3,102200,1022003
210,11,0,082572b6-1f3f-11e7-bf6b-3863bb334450,1,38.871821999999995,-77.107906,Pershing Dr & N George Mason Dr,41,http://app.capitalbikeshare.com/vIiR/zVsfTIsOTF?station_id=257,31069,257,2002,2,102003,1020032
211,15,0,08257325-1f3f-11e7-bf6b-3863bb334450,1,38.985403999999996,-77.02308199999999,Fenton St & New York Ave,44,http://app.capitalbikeshare.com/vIiR/zVsfTIsOTF?station_id=258,32001,258,1032,1,702500,7025001
212,19,0,0825738d-1f3f-11e7-bf6b-3863bb334450,1,38.981103000000004,-77.097426,Bethesda Ave & Arlington Rd,44,http://app.capitalbikeshare.com/vIiR/zVsfTIsOTF?station_id=259,32002,259,1019,1,704804,7048041
213,11,0,0825756e-1f3f-11e7-bf6b-3863bb334450,1,38.983838,-77.09221,Montgomery Ave & Waverly St,44,http://app.capitalbikeshare.com/vIiR/zVsfTIsOTF?station_id=260,32003,260,1006,1,704804,7048041
214,19,0,0825762e-1f3f-11e7-bf6b-3863bb334450,1,39.096312,-77.192672,Fallsgrove Blvd & Fallsgrove Dr,43,http://app.capitalbikeshare.com/vIiR/zVsfTIsOTF?station_id=261,32004,261,1022,1,701007,7010071
215,19,0,08257f71-1f3f-11e7-bf6b-3863bb334450,1,39.093783,-77.202501,Traville Gateway Dr & Gudelsky Dr,43,http://app.capitalbikeshare.com/vIiR/zVsfTIsOTF?station_id=262,32005,262,2002,2,701221,7012212
216,11,0,0825802a-1f3f-11e7-bf6b-3863bb334450,1,38.988562,-77.096539,Norfolk Ave & Fairmont St,44,http://app.capitalbikeshare.com/vIiR/zVsfTIsOTF?station_id=263,32000,263,2007,2,704806,7048062
217,15,0,082582ff-1f3f-11e7-bf6b-3863bb334450,1,39.084125,-77.151291,E Montgomery Ave & Maryland Ave,43,http://app.capitalbikeshare.com/vIiR/zVsfTIsOTF?station_id=264,32007,264,2004,2,700901,7009012
218,11,0,08258395-1f3f-11e7-bf6b-3863bb334450,1,38.989540000000005,-77.098029,Cordell & Norfolk Ave,44,http://app.capitalbikeshare.com/vIiR/zVsfTIsOTF?station_id=265,32008,265,2003,2,704806,7048062
219,15,0,082586f1-1f3f-11e7-bf6b-3863bb334450,1,38.98128,-77.011336,Philadelphia & Maple Ave,44,http://app.capitalbikeshare.com/vIiR/zVsfTIsOTF?station_id=267,32010,267,2006,2,701800,7018002
220,19,0,08258785-1f3f-11e7-bf6b-3863bb334450,1,38.983627,-77.006311,Maple & Ritchie Ave,44,http://app.capitalbikeshare.com/vIiR/zVsfTIsOTF?station_id=268,32011,268,1003,1,701800,7018001
221,19,0,0825881b-1f3f-11e7-bf6b-3863bb334450,1,38.99521,-77.02918000000001,Silver Spring Metro / Colesville Rd & Wayne Ave,44,http://app.capitalbikeshare.com/vIiR/zVsfTIsOTF?station_id=269,32012,269,4000,4,702500,7025004
222,11,0,08258a6c-1f3f-11e7-bf6b-3863bb334450,1,38.983525,-77.09536700000001,Montgomery & East Ln,44,http://app.capitalbikeshare.com/vIiR/zVsfTIsOTF?station_id=270,32013,270,1011,1,704804,7048041
223,19,0,08258b3f-1f3f-11e7-bf6b-3863bb334450,1,38.961763,-77.085998,Friendship Hts Metro / Wisconsin Ave & Wisconsin Cir,44,http://app.capitalbikeshare.com/vIiR/zVsfTIsOTF?station_id=271,32014,271,1005,1,705602,7056021
224,15,0,08258d95-1f3f-11e7-bf6b-3863bb334450,1,38.921074,-77.031887,14th & Belmont St NW,42,http://app.capitalbikeshare.com/vIiR/zVsfTIsOTF?station_id=272,31119,272,3002,3,003700,0037003
225,19,0,08258e2d-1f3f-11e7-bf6b-3863bb334450,1,38.875009999999996,-77.0024,3rd & Tingey St SE,42,http://app.capitalbikeshare.com/vIiR/zVsfTIsOTF?station_id=273,31634,273,2032,2,007200,0072002
226,19,0,08259009-1f3f-11e7-bf6b-3863bb334450,1,38.920387,-77.025672,10th & Florida Ave NW,42,http://app.capitalbikeshare.com/vIiR/zVsfTIsOTF?station_id=274,31120,274,2003,2,003500,0035002
227,15,0,08259091-1f3f-11e7-bf6b-3863bb334450,1,38.876737,-76.99446800000001,Potomac Ave & 8th St SE,42,http://app.capitalbikeshare.com/vIiR/zVsfTIsOTF?station_id=275,31635,275,2018,2,007200,0072002
228,15,0,082592b2-1f3f-11e7-bf6b-3863bb334450,1,39.120045000000005,-77.15698499999999,Crabbs Branch Way & Redland Rd,43,http://app.capitalbikeshare.com/vIiR/zVsfTIsOTF?station_id=276,32015,276,1001,1,701211,7012111
229,15,0,08259347-1f3f-11e7-bf6b-3863bb334450,1,39.099376,-77.188014,Fallsgrove Dr & W Montgomery Ave,43,http://app.capitalbikeshare.com/vIiR/zVsfTIsOTF?station_id=277,32016,277,1007,1,701007,7010071
230,15,0,082595a1-1f3f-11e7-bf6b-3863bb334450,1,39.083673,-77.149162,Monroe St & Monroe Pl,43,http://app.capitalbikeshare.com/vIiR/zVsfTIsOTF?station_id=278,32017,278,2008,2,700901,7009012
231,15,0,08259804-1f3f-11e7-bf6b-3863bb334450,1,38.990249,-77.02935,East West Hwy & Blair Mill Rd,44,http://app.capitalbikeshare.com/vIiR/zVsfTIsOTF?station_id=280,32019,280,1000,1,702601,7026011
232,15,0,08259a2a-1f3f-11e7-bf6b-3863bb334450,1,39.107709,-77.152072,Crabbs Branch Way & Calhoun Pl,43,http://app.capitalbikeshare.com/vIiR/zVsfTIsOTF?station_id=281,32020,281,1007,1,701211,7012111
233,15,0,08259c89-1f3f-11e7-bf6b-3863bb334450,1,38.982456,-77.09199100000001,47th & Elm St,44,http://app.capitalbikeshare.com/vIiR/zVsfTIsOTF?station_id=282,32021,282,1000,1,705400,7054001
234,15,0,08259e6f-1f3f-11e7-bf6b-3863bb334450,1,39.025387200000004,-77.044563,Dennis Ave & Amherst Ave,44,http://app.capitalbikeshare.com/vIiR/zVsfTIsOTF?station_id=283,32022,283,1006,1,703901,7039011
235,11,0,0825ac97-1f3f-11e7-bf6b-3863bb334450,1,38.989724,-77.023854,Fenton St & Gist Ave,44,http://app.capitalbikeshare.com/vIiR/zVsfTIsOTF?station_id=285,32024,285,3011,3,702402,7024023
236,15,0,0825b1a2-1f3f-11e7-bf6b-3863bb334450,1,38.977933,-77.006472,Carroll & Ethan Allen Ave,44,http://app.capitalbikeshare.com/vIiR/zVsfTIsOTF?station_id=287,32026,287,2019,2,701701,7017012
237,15,0,0825b213-1f3f-11e7-bf6b-3863bb334450,1,38.992375,-77.100104,Battery Ln & Trolley Trail,44,http://app.capitalbikeshare.com/vIiR/zVsfTIsOTF?station_id=288,32027,288,1004,1,704806,7048061
238,11,0,0825b27e-1f3f-11e7-bf6b-3863bb334450,1,38.990639,-77.100239,Norfolk & Rugby Ave,44,http://app.capitalbikeshare.com/vIiR/zVsfTIsOTF?station_id=289,32028,289,1008,1,704806,7048061
239,11,0,0825b2e7-1f3f-11e7-bf6b-3863bb334450,1,38.977092999999996,-77.094589,Offutt Ln & Chevy Chase Dr,44,http://app.capitalbikeshare.com/vIiR/zVsfTIsOTF?station_id=290,32029,290,2001,2,704803,7048032
240,15,0,0825b34d-1f3f-11e7-bf6b-3863bb334450,1,39.102099,-77.200322,Broschart & Blackwell Rd,43,http://app.capitalbikeshare.com/vIiR/zVsfTIsOTF?station_id=291,32030,291,3014,3,700817,7008173
241,15,0,0825b3bb-1f3f-11e7-bf6b-3863bb334450,1,39.094103000000004,-77.132954,Taft St & E Gude Dr,43,http://app.capitalbikeshare.com/vIiR/zVsfTIsOTF?station_id=292,32031,292,1006,1,700903,7009031
242,19,0,0825b4c9-1f3f-11e7-bf6b-3863bb334450,1,39.102212,-77.177091,Piccard & W Gude Dr,43,http://app.capitalbikeshare.com/vIiR/zVsfTIsOTF?station_id=294,32033,294,3006,3,701211,7012113
243,15,0,0825b553-1f3f-11e7-bf6b-3863bb334450,1,38.992678999999995,-77.029457,Ripley & Bonifant St,44,http://app.capitalbikeshare.com/vIiR/zVsfTIsOTF?station_id=295,32034,295,4006,4,702500,7025004
244,11,0,0825b614-1f3f-11e7-bf6b-3863bb334450,1,38.999388,-77.03155500000001,Georgia Ave & Spring St,44,http://app.capitalbikeshare.com/vIiR/zVsfTIsOTF?station_id=296,32035,296,1005,1,702500,7025001
245,15,0,0825b6a9-1f3f-11e7-bf6b-3863bb334450,1,38.997033,-77.02560799999999,Fenton St & Ellsworth Dr,44,http://app.capitalbikeshare.com/vIiR/zVsfTIsOTF?station_id=297,32036,297,1001,1,702500,7025001
246,18,0,0825b738-1f3f-11e7-bf6b-3863bb334450,1,39.114688,-77.171487,King Farm Blvd & Pleasant Dr,43,http://app.capitalbikeshare.com/vIiR/zVsfTIsOTF?station_id=298,32037,298,1034,1,700718,7007181
247,15,0,0825b7cc-1f3f-11e7-bf6b-3863bb334450,1,39.110314,-77.18266899999999,King Farm Blvd & Piccard Dr,43,http://app.capitalbikeshare.com/vIiR/zVsfTIsOTF?station_id=299,32038,299,2014,2,700718,7007182
248,19,0,0825b8f0-1f3f-11e7-bf6b-3863bb334450,1,38.923583,-77.050046,Calvert St & Woodley Pl NW,42,http://app.capitalbikeshare.com/vIiR/zVsfTIsOTF?station_id=301,31121,301,1005,1,000501,0005011
249,19,0,0825b983-1f3f-11e7-bf6b-3863bb334450,1,38.907059999999994,-77.015231,New Jersey Ave & N St NW/Dunbar HS,42,http://app.capitalbikeshare.com/vIiR/zVsfTIsOTF?station_id=302,31636,302,2017,2,004600,0046002
250,15,0,0825baa3-1f3f-11e7-bf6b-3863bb334450,1,38.908473,-76.933099,Deanwood Rec Center,42,http://app.capitalbikeshare.com/vIiR/zVsfTIsOTF?station_id=304,31711,304,2004,2,007806,0078062
251,17,0,0825bb32-1f3f-11e7-bf6b-3863bb334450,1,38.878433,-77.03023,Hains Point/Buckeye & Ohio Dr SW,42,http://app.capitalbikeshare.com/vIiR/zVsfTIsOTF?station_id=305,31273,305,1203,1,006202,0062021
252,11,0,0825bbc6-1f3f-11e7-bf6b-3863bb334450,1,38.873754999999996,-77.089233,Arlington Blvd & Fillmore St,41,http://app.capitalbikeshare.com/vIiR/zVsfTIsOTF?station_id=306,31070,306,4021,4,101803,1018034
253,17,0,0825bc56-1f3f-11e7-bf6b-3863bb334450,1,38.862753000000005,-77.05428,Eads St & 12th St S,41,http://app.capitalbikeshare.com/vIiR/zVsfTIsOTF?station_id=307,31071,307,1000,1,103502,1035021
254,19,0,0825bce9-1f3f-11e7-bf6b-3863bb334450,1,38.999634,-77.109647,Old Georgetown Rd & Southwick St,44,http://app.capitalbikeshare.com/vIiR/zVsfTIsOTF?station_id=308,32039,308,1000,1,704600,7046001
255,19,0,0825bd74-1f3f-11e7-bf6b-3863bb334450,1,38.96115,-77.08865899999999,Friendship Blvd & Willard Ave,44,http://app.capitalbikeshare.com/vIiR/zVsfTIsOTF?station_id=309,32040,309,2002,2,705602,7056022
256,19,0,0825be05-1f3f-11e7-bf6b-3863bb334450,1,38.899703,-77.008911,North Capitol St & G Pl NE,42,http://app.capitalbikeshare.com/vIiR/zVsfTIsOTF?station_id=310,31637,310,2033,2,010600,0106002
257,11,0,0825be94-1f3f-11e7-bf6b-3863bb334450,1,38.837666,-77.09482,31st St & S Woodrow St,41,http://app.capitalbikeshare.com/vIiR/zVsfTIsOTF?station_id=311,31072,311,2002,2,102902,1029022
258,15,0,0825bf2b-1f3f-11e7-bf6b-3863bb334450,1,38.873219,-77.082104,Washington Blvd & Walter Reed Dr,41,http://app.capitalbikeshare.com/vIiR/zVsfTIsOTF?station_id=312,31073,312,1001,1,102400,1024001
259,15,0,0825bfcd-1f3f-11e7-bf6b-3863bb334450,1,38.869417999999996,-77.095596,TJ Cmty Ctr / 2nd St & S Old Glebe Rd,41,http://app.capitalbikeshare.com/vIiR/zVsfTIsOTF?station_id=313,31074,313,4006,4,102400,1024004
260,15,0,0825df01-1f3f-11e7-bf6b-3863bb334450,1,39.103091,-77.196442,Medical Center Dr & Key West Ave,43,http://app.capitalbikeshare.com/vIiR/zVsfTIsOTF?station_id=315,32041,315,3015,3,700817,7008173
261,19,0,0825dffc-1f3f-11e7-bf6b-3863bb334450,1,39.097636,-77.196636,Shady Grove Hospital,43,http://app.capitalbikeshare.com/vIiR/zVsfTIsOTF?station_id=316,32042,316,3019,3,700817,7008173
262,11,0,0825e0a1-1f3f-11e7-bf6b-3863bb334450,1,38.997445,-77.023894,Veterans Pl & Pershing Dr,44,http://app.capitalbikeshare.com/vIiR/zVsfTIsOTF?station_id=317,32043,317,1000,1,702500,7025001
263,13,0,0825e147-1f3f-11e7-bf6b-3863bb334450,1,39.085394,-77.145803,Rockville Metro East,43,http://app.capitalbikeshare.com/vIiR/zVsfTIsOTF?station_id=318,32044,318,2024,2,700902,7009022
264,15,0,0825e1e5-1f3f-11e7-bf6b-3863bb334450,1,38.900358000000004,-77.012108,1st & H St NW,42,http://app.capitalbikeshare.com/vIiR/zVsfTIsOTF?station_id=319,31638,319,1020,1,004702,0047021
265,19,0,0825e27a-1f3f-11e7-bf6b-3863bb334450,1,38.952369,-77.002721,Fort Totten Metro,42,http://app.capitalbikeshare.com/vIiR/zVsfTIsOTF?station_id=320,31515,320,1007,1,009508,0095081
266,19,0,0825e31a-1f3f-11e7-bf6b-3863bb334450,1,38.975219,-77.016855,Takoma Metro,42,http://app.capitalbikeshare.com/vIiR/zVsfTIsOTF?station_id=321,31408,321,2000,2,001702,0017022
267,19,0,0825e3b0-1f3f-11e7-bf6b-3863bb334450,1,38.920682,-76.995876,Rhode Island Ave Metro,42,http://app.capitalbikeshare.com/vIiR/zVsfTIsOTF?station_id=322,31516,322,2022,2,009102,0091022
268,11,0,0825e443-1f3f-11e7-bf6b-3863bb334450,1,38.866471000000004,-77.076131,Rolfe St & 9th St S,41,http://app.capitalbikeshare.com/vIiR/zVsfTIsOTF?station_id=323,31075,323,1014,1,102500,1025001
269,15,0,0825e4d5-1f3f-11e7-bf6b-3863bb334450,1,38.839912,-77.08708299999999,Shirlington Transit Center / Quincy St & Randolph St,41,http://app.capitalbikeshare.com/vIiR/zVsfTIsOTF?station_id=324,31076,324,1009,1,102902,1029021
270,19,0,0825e56c-1f3f-11e7-bf6b-3863bb334450,1,39.119765,-77.166093,Shady Grove Metro West,43,http://app.capitalbikeshare.com/vIiR/zVsfTIsOTF?station_id=325,32045,325,2025,2,700704,7007042
271,19,0,0825e5ff-1f3f-11e7-bf6b-3863bb334450,1,38.964991999999995,-77.103381,River Rd & Landy Ln,44,http://app.capitalbikeshare.com/vIiR/zVsfTIsOTF?station_id=326,32046,326,3014,3,705502,7055023
272,19,0,0825f1f7-1f3f-11e7-bf6b-3863bb334450,1,39.084379,-77.146866,Rockville Metro West,43,http://app.capitalbikeshare.com/vIiR/zVsfTIsOTF?station_id=327,32047,327,2000,2,700901,7009012
273,12,0,0825f2b1-1f3f-11e7-bf6b-3863bb334450,1,38.984691,-77.094537,Bethesda Metro / Wisconsin Ave & Old Georgetown Rd,44,http://app.capitalbikeshare.com/vIiR/zVsfTIsOTF?station_id=328,32048,328,1004,1,704804,7048041
274,19,0,0825f344-1f3f-11e7-bf6b-3863bb334450,1,38.889920000000004,-77.071301,Iwo Jima Memorial / Meade & 14th St N,41,http://app.capitalbikeshare.com/vIiR/zVsfTIsOTF?station_id=329,31077,329,1024,1,980100,9801001
275,19,0,0825f3d4-1f3f-11e7-bf6b-3863bb334450,1,38.90366269,-77.06766844,34th & Water St NW,42,http://app.capitalbikeshare.com/vIiR/zVsfTIsOTF?station_id=330,31314,330,4021,4,000202,0002024
276,15,0,0825f465-1f3f-11e7-bf6b-3863bb334450,1,38.804378,-77.060866,Duke St & John Carlyle St,40,http://app.capitalbikeshare.com/vIiR/zVsfTIsOTF?station_id=331,31081,331,1007,1,200702,2007021
277,15,0,0825f4f2-1f3f-11e7-bf6b-3863bb334450,1,38.894940999999996,-77.09169,Lee Hwy & N Cleveland St,41,http://app.capitalbikeshare.com/vIiR/zVsfTIsOTF?station_id=332,31079,332,6001,6,101500,1015006
278,15,0,0825f58d-1f3f-11e7-bf6b-3863bb334450,1,38.869442,-77.10450300000001,Arlington Blvd & S George Mason Dr,41,http://app.capitalbikeshare.com/vIiR/zVsfTIsOTF?station_id=333,31078,333,2003,2,102301,1023012
279,23,0,0825f622-1f3f-11e7-bf6b-3863bb334450,1,38.89824329,-77.02623546,10th & G St NW,42,http://app.capitalbikeshare.com/vIiR/zVsfTIsOTF?station_id=334,31274,334,1031,1,005800,0058001
280,15,0,0825f6b3-1f3f-11e7-bf6b-3863bb334450,1,38.897612,-77.080851,Lee Hwy & N Scott St,41,http://app.capitalbikeshare.com/vIiR/zVsfTIsOTF?station_id=335,31080,335,1011,1,101601,1016011
281,15,0,0825f794-1f3f-11e7-bf6b-3863bb334450,1,38.801111,-77.068952,Eisenhower Ave & Mill Race Ln,40,http://app.capitalbikeshare.com/vIiR/zVsfTIsOTF?station_id=337,31082,337,1017,1,200702,2007021
282,11,0,0825f807-1f3f-11e7-bf6b-3863bb334450,1,38.82175,-77.047494,Potomac Greens Dr & Slaters Ln,40,http://app.capitalbikeshare.com/vIiR/zVsfTIsOTF?station_id=338,31083,338,2023,2,201801,2018012
283,19,0,0825f872-1f3f-11e7-bf6b-3863bb334450,1,38.802677,-77.063562,Ballenger Ave & Dulaney St,40,http://app.capitalbikeshare.com/vIiR/zVsfTIsOTF?station_id=339,31084,339,1029,1,200702,2007021
284,11,0,0825f8da-1f3f-11e7-bf6b-3863bb334450,1,38.820064,-77.05761899999999,Mount Vernon Ave & E Nelson Ave,40,http://app.capitalbikeshare.com/vIiR/zVsfTIsOTF?station_id=340,31085,340,3000,3,201400,2014003
285,15,0,0825f946-1f3f-11e7-bf6b-3863bb334450,1,38.82595,-77.058541,Mount Vernon Ave & E Del Ray Ave,40,http://app.capitalbikeshare.com/vIiR/zVsfTIsOTF?station_id=341,31086,341,2008,2,201300,2013002
286,15,0,0825fa22-1f3f-11e7-bf6b-3863bb334450,1,38.833077,-77.059821,Mount Vernon Ave & Kennedy St,40,http://app.capitalbikeshare.com/vIiR/zVsfTIsOTF?station_id=343,31088,343,2005,2,201204,2012042
287,21,0,0825fa8b-1f3f-11e7-bf6b-3863bb334450,1,38.890612,-77.084801,Court House Metro / 15th St & N Uhle St,41,http://app.capitalbikeshare.com/vIiR/zVsfTIsOTF?station_id=344,31089,344,1008,1,101802,1018021
288,15,0,0825faf6-1f3f-11e7-bf6b-3863bb334450,1,38.986743,-77.000035,WAU / Flower Ave & Division St,44,http://app.capitalbikeshare.com/vIiR/zVsfTIsOTF?station_id=345,32049,345,1015,1,701702,7017021
289,15,0,0825fb66-1f3f-11e7-bf6b-3863bb334450,1,38.865553000000006,-77.05003,Long Bridge Park / Long Bridge Dr & 6th St S,41,http://app.capitalbikeshare.com/vIiR/zVsfTIsOTF?station_id=346,31090,346,5005,5,103402,1034025
290,19,0,0825fbd3-1f3f-11e7-bf6b-3863bb334450,1,38.96454351,-77.07513481,Connecticut Ave & McKinley St NW,42,http://app.capitalbikeshare.com/vIiR/zVsfTIsOTF?station_id=347,31315,347,2019,2,001401,0014012
291,23,0,0825fc3a-1f3f-11e7-bf6b-3863bb334450,1,38.903659999999995,-77.034846,15th & L St NW,42,http://app.capitalbikeshare.com/vIiR/zVsfTIsOTF?station_id=348,31276,348,2005,2,010100,0101002
292,31,0,0825fca2-1f3f-11e7-bf6b-3863bb334450,1,38.89841,-77.039624,17th & G St NW,42,http://app.capitalbikeshare.com/vIiR/zVsfTIsOTF?station_id=349,31277,349,2000,2,010800,0108002
293,19,0,0825fd75-1f3f-11e7-bf6b-3863bb334450,1,38.912648,-77.041834,18th & R St NW,42,http://app.capitalbikeshare.com/vIiR/zVsfTIsOTF?station_id=351,31278,351,1002,1,004202,0042021
294,15,0,0825fddc-1f3f-11e7-bf6b-3863bb334450,1,38.859254,-77.063275,Joyce St & 16th St S,41,http://app.capitalbikeshare.com/vIiR/zVsfTIsOTF?station_id=352,31091,352,2001,2,103502,1035022
295,23,0,0825fe4c-1f3f-11e7-bf6b-3863bb334450,1,38.907908,-76.99707,Union Market,42,http://app.capitalbikeshare.com/vIiR/zVsfTIsOTF?station_id=353,31517,353,1018,1,008803,0088031
296,15,0,0825feb6-1f3f-11e7-bf6b-3863bb334450,1,38.896456,-77.104562,Lee Hwy & N Monroe St,41,http://app.capitalbikeshare.com/vIiR/zVsfTIsOTF?station_id=354,31092,354,1009,1,100500,1005001
297,15,0,0825ff20-1f3f-11e7-bf6b-3863bb334450,1,38.898984000000006,-77.078317,21st St & N Pierce St,41,http://app.capitalbikeshare.com/vIiR/zVsfTIsOTF?station_id=355,31093,355,2004,2,101601,1016012
298,15,0,0825ff8d-1f3f-11e7-bf6b-3863bb334450,1,38.895377,-77.09713,Lee Hwy & N Kirkwood Rd,41,http://app.capitalbikeshare.com/vIiR/zVsfTIsOTF?station_id=356,31094,356,4001,4,101500,1015004
299,23,0,0825fff6-1f3f-11e7-bf6b-3863bb334450,1,38.898412,-77.043182,19th & G St NW,42,http://app.capitalbikeshare.com/vIiR/zVsfTIsOTF?station_id=357,31279,357,2001,2,010800,0108002
300,19,0,0826005e-1f3f-11e7-bf6b-3863bb334450,1,38.91475111,-77.00356007,2nd St & Seaton Pl NE,42,http://app.capitalbikeshare.com/vIiR/zVsfTIsOTF?station_id=358,31522,358,1000,1,008701,0087011
301,15,0,082600d8-1f3f-11e7-bf6b-3863bb334450,1,38.876528,-77.12711999999999,Wilson Blvd & N Illinois St,41,http://app.capitalbikeshare.com/vIiR/zVsfTIsOTF?station_id=359,31902,359,5007,5,101300,1013005
302,11,0,0826029e-1f3f-11e7-bf6b-3863bb334450,1,38.86215025,-77.06812084,Army Navy Dr & S Nash St,41,http://app.capitalbikeshare.com/vIiR/zVsfTIsOTF?station_id=364,31095,364,1004,1,103501,1035011
303,23,0,082603fc-1f3f-11e7-bf6b-3863bb334450,1,38.913761,-77.027025,11th & S St NW,42,http://app.capitalbikeshare.com/vIiR/zVsfTIsOTF?station_id=367,31280,367,1003,1,004901,0049011
304,23,0,082604dd-1f3f-11e7-bf6b-3863bb334450,1,38.89967,-77.00366600000001,2nd & G St NE,42,http://app.capitalbikeshare.com/vIiR/zVsfTIsOTF?station_id=369,31639,369,2034,2,010600,0106002
305,19,0,08260549-1f3f-11e7-bf6b-3863bb334450,1,38.908640000000005,-77.02277,8th & O St NW,42,http://app.capitalbikeshare.com/vIiR/zVsfTIsOTF?station_id=370,31281,370,2007,2,004901,0049012
306,19,0,08261245-1f3f-11e7-bf6b-3863bb334450,1,38.894474,-76.974828,Oklahoma Ave & D St NE,42,http://app.capitalbikeshare.com/vIiR/zVsfTIsOTF?station_id=373,31712,373,1018,1,007903,0079031
307,19,0,082612c1-1f3f-11e7-bf6b-3863bb334450,1,38.896134,-76.9929,Maryland Ave & E St NE,42,http://app.capitalbikeshare.com/vIiR/zVsfTIsOTF?station_id=374,31640,374,1002,1,008100,0081001
308,23,0,0826132d-1f3f-11e7-bf6b-3863bb334450,1,38.915603999999995,-76.983683,New York Ave & Hecht Ave NE,42,http://app.capitalbikeshare.com/vIiR/zVsfTIsOTF?station_id=375,31518,375,1001,1,008803,0088031
309,19,0,0826139b-1f3f-11e7-bf6b-3863bb334450,1,38.946182,-77.08059,Yuma St & Tenley Circle NW,42,http://app.capitalbikeshare.com/vIiR/zVsfTIsOTF?station_id=376,31316,376,4010,4,001001,0010014
310,15,0,08261407-1f3f-11e7-bf6b-3863bb334450,1,38.994113,-77.076986,Connecticut Ave & Chevy Chase Lake Dr,44,http://app.capitalbikeshare.com/vIiR/zVsfTIsOTF?station_id=377,32051,377,2007,2,705100,7051002
311,19,0,082614e4-1f3f-11e7-bf6b-3863bb334450,1,38.898301000000004,-77.118009,Lee Hwy & N Woodstock St,41,http://app.capitalbikeshare.com/vIiR/zVsfTIsOTF?station_id=379,31900,379,1002,1,100700,1007001
312,15,0,0826154d-1f3f-11e7-bf6b-3863bb334450,1,38.812718,-77.044097,Saint Asaph St & Madison St,40,http://app.capitalbikeshare.com/vIiR/zVsfTIsOTF?station_id=380,31097,380,4014,4,201801,2018014
313,15,0,082615b7-1f3f-11e7-bf6b-3863bb334450,1,38.80704,-77.05981700000001,King St Metro North / Cameron St,40,http://app.capitalbikeshare.com/vIiR/zVsfTIsOTF?station_id=381,31098,381,2006,2,201900,2019002
314,15,0,08261620-1f3f-11e7-bf6b-3863bb334450,1,38.813485,-77.049468,Madison St & N Henry St,40,http://app.capitalbikeshare.com/vIiR/zVsfTIsOTF?station_id=382,31099,382,3005,3,201600,2016003
315,11,0,082616fc-1f3f-11e7-bf6b-3863bb334450,1,38.884828999999996,-77.12767099999999,Washington Blvd & N Frederick St,41,http://app.capitalbikeshare.com/vIiR/zVsfTIsOTF?station_id=384,31901,384,3010,3,100700,1007003
316,19,0,0826176a-1f3f-11e7-bf6b-3863bb334450,1,38.958267,-77.084636,Wisconsin Ave & Ingomar St NW,42,http://app.capitalbikeshare.com/vIiR/zVsfTIsOTF?station_id=385,31317,385,1003,1,001001,0010011
317,19,0,082617d2-1f3f-11e7-bf6b-3863bb334450,1,38.928893,-77.03625,16th & Irving St NW,42,http://app.capitalbikeshare.com/vIiR/zVsfTIsOTF?station_id=386,31122,386,2004,2,002802,0028022
318,15,0,082618a7-1f3f-11e7-bf6b-3863bb334450,1,38.999679,-77.051168,Lyttonsville Rd & Lyttonsville Pl,44,http://app.capitalbikeshare.com/vIiR/zVsfTIsOTF?station_id=388,32054,388,4027,4,702700,7027004
319,11,0,0826190f-1f3f-11e7-bf6b-3863bb334450,1,38.979875,-77.093522,Woodmont Ave & Strathmore St,44,http://app.capitalbikeshare.com/vIiR/zVsfTIsOTF?station_id=389,32055,389,3004,3,704803,7048033
320,15,0,082619e1-1f3f-11e7-bf6b-3863bb334450,1,38.908643,-77.012365,1st & O St NW,42,http://app.capitalbikeshare.com/vIiR/zVsfTIsOTF?station_id=391,31519,391,2014,2,004600,0046002
321,19,0,08261aba-1f3f-11e7-bf6b-3863bb334450,1,38.893511,-77.04154399999999,18th & C St NW,42,http://app.capitalbikeshare.com/vIiR/zVsfTIsOTF?station_id=393,31284,393,2022,2,010800,0108002
322,19,0,08261b21-1f3f-11e7-bf6b-3863bb334450,1,38.909394,-77.048728,22nd & P ST NW,42,http://app.capitalbikeshare.com/vIiR/zVsfTIsOTF?station_id=394,31285,394,4000,4,005500,0055004
323,19,0,08261b89-1f3f-11e7-bf6b-3863bb334450,1,38.995681,-77.038721,East West Hwy & 16th St,44,http://app.capitalbikeshare.com/vIiR/zVsfTIsOTF?station_id=395,32056,395,2001,2,702602,7026022
324,15,0,08261bf4-1f3f-11e7-bf6b-3863bb334450,1,38.799267,-77.0447,Royal St & Wilkes St,40,http://app.capitalbikeshare.com/vIiR/zVsfTIsOTF?station_id=396,31903,396,2012,2,202001,2020012
325,23,0,08261c65-1f3f-11e7-bf6b-3863bb334450,1,38.925284000000005,-77.032375,14th & Girard St NW,42,http://app.capitalbikeshare.com/vIiR/zVsfTIsOTF?station_id=397,31123,397,2002,2,003700,0037002
326,19,0,08261d35-1f3f-11e7-bf6b-3863bb334450,1,38.908429999999996,-77.02714,11th & O St NW,42,http://app.capitalbikeshare.com/vIiR/zVsfTIsOTF?station_id=399,31286,399,3006,3,005002,0050023
327,23,0,08261d9d-1f3f-11e7-bf6b-3863bb334450,1,38.88432272,-77.02601016,10th St & L'Enfant Plaza SW,42,http://app.capitalbikeshare.com/vIiR/zVsfTIsOTF?station_id=400,31287,400,2006,2,010200,0102002
328,19,0,08261e06-1f3f-11e7-bf6b-3863bb334450,1,38.947156,-77.065115,Connecticut Ave & Yuma St NW,42,http://app.capitalbikeshare.com/vIiR/zVsfTIsOTF?station_id=401,31318,401,1001,1,001302,0013021
329,23,0,08261ee4-1f3f-11e7-bf6b-3863bb334450,1,38.828437,-77.086031,Radford St & Osage St,40,http://app.capitalbikeshare.com/vIiR/zVsfTIsOTF?station_id=403,31908,403,1010,1,200900,2009001
330,19,0,08261f4b-1f3f-11e7-bf6b-3863bb334450,1,38.884859000000006,-77.155988,East Falls Church Metro / Sycamore St & 19th St N,41,http://app.capitalbikeshare.com/vIiR/zVsfTIsOTF?station_id=404,31904,404,4010,4,101100,1011004
331,15,0,08261fb3-1f3f-11e7-bf6b-3863bb334450,1,38.880992,-77.135271,Kennebec St & 11th St N,41,http://app.capitalbikeshare.com/vIiR/zVsfTIsOTF?station_id=405,31905,405,4008,4,100900,1009004
332,19,0,08262027-1f3f-11e7-bf6b-3863bb334450,1,38.812711,-77.061715,Commonwealth Ave & Oak St,40,http://app.capitalbikeshare.com/vIiR/zVsfTIsOTF?station_id=406,31906,406,3018,3,201500,2015003
333,15,0,08262094-1f3f-11e7-bf6b-3863bb334450,1,38.82005823,-77.06282079,Commonwealth Ave & E Monroe Ave,40,http://app.capitalbikeshare.com/vIiR/zVsfTIsOTF?station_id=407,31913,407,3001,3,201400,2014003
334,31,0,082620fc-1f3f-11e7-bf6b-3863bb334450,1,38.890493,-77.017253,4th St & Madison Dr NW,42,http://app.capitalbikeshare.com/vIiR/zVsfTIsOTF?station_id=408,31288,408,1107,1,006202,0062021
335,19,0,082623bf-1f3f-11e7-bf6b-3863bb334450,1,38.888096999999995,-77.038325,17th St & Independence Ave SW,42,http://app.capitalbikeshare.com/vIiR/zVsfTIsOTF?station_id=410,31290,410,1097,1,006202,0062021
336,19,0,0826242b-1f3f-11e7-bf6b-3863bb334450,1,38.798133,-77.0487,Franklin St & S Washington St,40,http://app.capitalbikeshare.com/vIiR/zVsfTIsOTF?station_id=411,31907,411,2000,2,200703,2007032
337,15,0,08262494-1f3f-11e7-bf6b-3863bb334450,1,38.843422,-77.06401600000001,Mount Vernon Ave & Four Mile Run Park,40,http://app.capitalbikeshare.com/vIiR/zVsfTIsOTF?station_id=412,31909,412,4001,4,201203,2012034
338,23,0,082624fc-1f3f-11e7-bf6b-3863bb334450,1,38.903597999999995,-77.01397,New Jersey Ave & L St NW,42,http://app.capitalbikeshare.com/vIiR/zVsfTIsOTF?station_id=413,31642,413,2003,2,004701,0047012
339,15,0,0826256c-1f3f-11e7-bf6b-3863bb334450,1,38.841291,-77.06309300000001,Mount Vernon Ave & Bruce St,40,http://app.capitalbikeshare.com/vIiR/zVsfTIsOTF?station_id=414,31912,414,4001,4,201203,2012034
340,15,0,082625d9-1f3f-11e7-bf6b-3863bb334450,1,38.797557,-77.05376600000001,Lee Center,40,http://app.capitalbikeshare.com/vIiR/zVsfTIsOTF?station_id=415,31914,415,1005,1,200703,2007031
341,15,0,082630e2-1f3f-11e7-bf6b-3863bb334450,1,38.818748,-77.047783,Powhatan St & Bashford Ln,40,http://app.capitalbikeshare.com/vIiR/zVsfTIsOTF?station_id=416,31915,416,1001,1,201801,2018011
342,19,0,0826315d-1f3f-11e7-bf6b-3863bb334450,1,38.829545,-77.047844,Potomac Ave & Swann Ave,40,http://app.capitalbikeshare.com/vIiR/zVsfTIsOTF?station_id=417,31916,417,2003,2,201801,2018012
343,31,0,082631cd-1f3f-11e7-bf6b-3863bb334450,1,38.928552,-77.032224,14th & Irving St NW,42,http://app.capitalbikeshare.com/vIiR/zVsfTIsOTF?station_id=418,31124,418,2001,2,003000,0030002
344,25,0,08263241-1f3f-11e7-bf6b-3863bb334450,1,38.90113645,-77.03445107,Vermont Ave & I St NW,42,http://app.capitalbikeshare.com/vIiR/zVsfTIsOTF?station_id=419,31291,419,1017,1,010100,0101001
345,25,0,082632a8-1f3f-11e7-bf6b-3863bb334450,1,38.949813,-77.080217,Wisconsin Ave & Brandywine St NW,42,http://app.capitalbikeshare.com/vIiR/zVsfTIsOTF?station_id=420,31319,420,4018,4,001100,0011004
346,19,0,08263311-1f3f-11e7-bf6b-3863bb334450,1,38.91263,-76.971923,24th & R St NE / National Arboretum,42,http://app.capitalbikeshare.com/vIiR/zVsfTIsOTF?station_id=421,31520,421,3023,3,011100,0111003
347,15,0,0826337e-1f3f-11e7-bf6b-3863bb334450,1,38.897407,-76.925907,Division Ave & Foote St NE,42,http://app.capitalbikeshare.com/vIiR/zVsfTIsOTF?station_id=422,31713,422,2007,2,007807,0078072
348,23,0,082633ec-1f3f-11e7-bf6b-3863bb334450,1,38.870695,-76.982359,16th & Q St SE / Anacostia HS,42,http://app.capitalbikeshare.com/vIiR/zVsfTIsOTF?station_id=423,31812,423,5015,5,007601,0076015
349,15,0,0826345e-1f3f-11e7-bf6b-3863bb334450,1,38.929261,-77.240654,Spring Hill Metro,104,http://app.capitalbikeshare.com/vIiR/zVsfTIsOTF?station_id=424,32200,424,3064,3,480300,4803003
350,11,0,082634c6-1f3f-11e7-bf6b-3863bb334450,1,38.92403,-77.235955,Westpark Dr & Leesburg Pike,104,http://app.capitalbikeshare.com/vIiR/zVsfTIsOTF?station_id=425,32201,425,2033,2,480202,4802022
351,11,0,0826359a-1f3f-11e7-bf6b-3863bb334450,1,38.919475,-77.221179,Tysons One Pl & Chain Bridge Rd,104,http://app.capitalbikeshare.com/vIiR/zVsfTIsOTF?station_id=427,32203,427,2020,2,480202,4802022
352,11,0,08263601-1f3f-11e7-bf6b-3863bb334450,1,38.920939000000004,-77.222115,Tysons Corner Station,104,http://app.capitalbikeshare.com/vIiR/zVsfTIsOTF?station_id=428,32204,428,2006,2,480202,4802022
353,11,0,0826366d-1f3f-11e7-bf6b-3863bb334450,1,38.924437,-77.217664,Westpark & Jones Branch Dr,104,http://app.capitalbikeshare.com/vIiR/zVsfTIsOTF?station_id=429,32205,429,1018,1,480202,4802021
354,13,0,082636d5-1f3f-11e7-bf6b-3863bb334450,1,38.931911,-77.219261,Jones Branch & Westbranch Dr,104,http://app.capitalbikeshare.com/vIiR/zVsfTIsOTF?station_id=430,32206,430,1018,1,480202,4802021
355,11,0,0826373c-1f3f-11e7-bf6b-3863bb334450,1,38.928919,-77.225394,Westpark & Park Run Dr,104,http://app.capitalbikeshare.com/vIiR/zVsfTIsOTF?station_id=431,32207,431,1024,1,480202,4802021
356,11,0,082637a5-1f3f-11e7-bf6b-3863bb334450,1,38.932635999999995,-77.231825,Tysons West Transit Center,104,http://app.capitalbikeshare.com/vIiR/zVsfTIsOTF?station_id=432,32208,432,1011,1,480202,4802021
357,11,0,0826380c-1f3f-11e7-bf6b-3863bb334450,1,38.970046,-77.338686,North Shore & Cameron Crescent Dr/Crescent Apartments,104,http://app.capitalbikeshare.com/vIiR/zVsfTIsOTF?station_id=433,32209,433,1001,1,482100,4821001
358,15,0,08263885-1f3f-11e7-bf6b-3863bb334450,1,38.962524,-77.361902,Town Center Pkwy & Bowman Towne Dr,104,http://app.capitalbikeshare.com/vIiR/zVsfTIsOTF?station_id=434,32210,434,1010,1,482203,4822031
359,15,0,082638f2-1f3f-11e7-bf6b-3863bb334450,1,38.962095,-77.358815,Reston Regional Library,104,http://app.capitalbikeshare.com/vIiR/zVsfTIsOTF?station_id=435,32211,435,1009,1,482203,4822031
360,17,0,08263a37-1f3f-11e7-bf6b-3863bb334450,1,38.957037,-77.359718,Reston Town Center Transit Station,104,http://app.capitalbikeshare.com/vIiR/zVsfTIsOTF?station_id=438,32214,438,2000,2,482203,4822032
361,19,0,08263aa1-1f3f-11e7-bf6b-3863bb334450,1,38.884916,-77.005965,1st & D St SE,42,http://app.capitalbikeshare.com/vIiR/zVsfTIsOTF?station_id=439,31643,439,2007,2,006500,0065002
362,19,0,08263b6d-1f3f-11e7-bf6b-3863bb334450,1,38.959633000000004,-77.35874100000001,Library St & Freedom Dr,104,http://app.capitalbikeshare.com/vIiR/zVsfTIsOTF?station_id=441,32216,441,4002,4,482203,4822034
363,15,0,08263bd6-1f3f-11e7-bf6b-3863bb334450,1,38.95534,-77.357611,Sunset Hills Rd & Discovery Square,104,http://app.capitalbikeshare.com/vIiR/zVsfTIsOTF?station_id=442,32217,442,2017,2,482203,4822032
364,23,0,08263c43-1f3f-11e7-bf6b-3863bb334450,1,38.892441,-77.048947,22nd St & Constitution Ave NW,42,http://app.capitalbikeshare.com/vIiR/zVsfTIsOTF?station_id=443,31292,443,1079,1,006202,0062021
365,15,0,08263d19-1f3f-11e7-bf6b-3863bb334450,1,38.960084,-77.353414,Temporary Rd & Old Reston Ave,104,http://app.capitalbikeshare.com/vIiR/zVsfTIsOTF?station_id=445,32218,445,3000,3,482202,4822023
366,15,0,08263f4a-1f3f-11e7-bf6b-3863bb334450,1,38.955314,-77.368416,Reston YMCA,104,http://app.capitalbikeshare.com/vIiR/zVsfTIsOTF?station_id=446,32219,446,2008,2,482203,4822032
367,11,0,08263fbd-1f3f-11e7-bf6b-3863bb334450,1,38.951443,-77.340377,Sunset Hills Rd & Isaac Newton Square,104,http://app.capitalbikeshare.com/vIiR/zVsfTIsOTF?station_id=447,32220,447,2012,2,482202,4822022
368,15,0,0826402c-1f3f-11e7-bf6b-3863bb334450,1,38.89386,-77.070862,N Lynn St & Fairfax Dr,41,http://app.capitalbikeshare.com/vIiR/zVsfTIsOTF?station_id=448,31917,448,1000,1,101702,1017021
369,15,0,08264097-1f3f-11e7-bf6b-3863bb334450,1,38.967504999999996,-77.027976,Georgia Ave & Piney Branch Rd NW,42,http://app.capitalbikeshare.com/vIiR/zVsfTIsOTF?station_id=449,31414,449,2003,2,001804,0018042
370,11,0,0826410b-1f3f-11e7-bf6b-3863bb334450,1,38.923083,-77.227417,Greensboro & International Dr,104,http://app.capitalbikeshare.com/vIiR/zVsfTIsOTF?station_id=450,32221,450,2009,2,480202,4802022
371,15,0,08264173-1f3f-11e7-bf6b-3863bb334450,1,38.812351,-77.04069100000001,Madison St & Fairfax St,40,http://app.capitalbikeshare.com/vIiR/zVsfTIsOTF?station_id=451,31918,451,4017,4,201801,2018014
372,19,0,08264250-1f3f-11e7-bf6b-3863bb334450,1,38.919086,-77.034502,15th & W St NW,42,http://app.capitalbikeshare.com/vIiR/zVsfTIsOTF?station_id=453,31125,453,1001,1,004300,0043001
373,19,0,082642bd-1f3f-11e7-bf6b-3863bb334450,1,38.882489,-76.990121,12th St & Pennsylvania Ave SE,42,http://app.capitalbikeshare.com/vIiR/zVsfTIsOTF?station_id=454,31644,454,1012,1,006900,0069001
374,15,0,08264325-1f3f-11e7-bf6b-3863bb334450,1,38.957463,-77.002239,3rd St & Riggs Rd NE,42,http://app.capitalbikeshare.com/vIiR/zVsfTIsOTF?station_id=455,31412,455,3013,3,009505,0095053
375,15,0,08264392-1f3f-11e7-bf6b-3863bb334450,1,38.876695,-77.11298199999999,Carlin Springs Rd & N Thomas St,41,http://app.capitalbikeshare.com/vIiR/zVsfTIsOTF?station_id=456,31919,456,1000,1,102001,1020011
376,19,0,082644bc-1f3f-11e7-bf6b-3863bb334450,1,38.9028773,-76.99840486,6th & K St NE,42,http://app.capitalbikeshare.com/vIiR/zVsfTIsOTF?station_id=458,31645,458,3002,3,010600,0106003
377,15,0,08264525-1f3f-11e7-bf6b-3863bb334450,1,39.014716,-77.10714300000001,Pooks Hill Rd & Linden Ave,44,http://app.capitalbikeshare.com/vIiR/zVsfTIsOTF?station_id=459,32057,459,4001,4,704404,7044044
378,15,0,0826502d-1f3f-11e7-bf6b-3863bb334450,1,38.98265,-76.988311,Takoma Park Rec Center,44,http://app.capitalbikeshare.com/vIiR/zVsfTIsOTF?station_id=460,32059,460,3000,3,701703,7017033
379,15,0,082650b1-1f3f-11e7-bf6b-3863bb334450,1,38.988101,-76.988422,New Hampshire & Kirklynn Ave,44,http://app.capitalbikeshare.com/vIiR/zVsfTIsOTF?station_id=461,32061,461,1002,1,701703,7017031
380,11,0,08265124-1f3f-11e7-bf6b-3863bb334450,1,39.038340999999996,-77.051023,Wheaton Metro / Georgia Ave & Reedie Dr,44,http://app.capitalbikeshare.com/vIiR/zVsfTIsOTF?station_id=462,32062,462,1026,1,703800,7038001
381,15,0,082651f8-1f3f-11e7-bf6b-3863bb334450,1,39.035965000000004,-77.048395,Amherst Ave & Prichard Rd,44,http://app.capitalbikeshare.com/vIiR/zVsfTIsOTF?station_id=464,32064,464,2023,2,703902,7039022
382,15,0,08265262-1f3f-11e7-bf6b-3863bb334450,1,39.043271999999995,-77.053085,Grandview & Blueridge Ave,44,http://app.capitalbikeshare.com/vIiR/zVsfTIsOTF?station_id=465,32065,465,2009,2,703702,7037022
383,15,0,082652d2-1f3f-11e7-bf6b-3863bb334450,1,39.032029,-77.04735,Windham Ln & Amherst Ave,44,http://app.capitalbikeshare.com/vIiR/zVsfTIsOTF?station_id=466,32066,466,2023,2,703902,7039022
384,11,0,082653a6-1f3f-11e7-bf6b-3863bb334450,1,38.9551706,-77.36309409,Town Center Pkwy & Sunset Hills Rd,104,http://app.capitalbikeshare.com/vIiR/zVsfTIsOTF?station_id=468,32224,468,2008,2,482203,4822032
385,19,0,0826547e-1f3f-11e7-bf6b-3863bb334450,1,38.93293,-76.979517,18th & Monroe St NE,42,http://app.capitalbikeshare.com/vIiR/zVsfTIsOTF?station_id=470,31521,470,2011,2,009400,0094002
386,19,0,082654f4-1f3f-11e7-bf6b-3863bb334450,1,38.88345,-77.021741,7th & E St SW,42,http://app.capitalbikeshare.com/vIiR/zVsfTIsOTF?station_id=471,31294,471,1009,1,010200,0102001
387,19,0,08265563-1f3f-11e7-bf6b-3863bb334450,1,39.121327,-77.164969,Shady Grove Metro East,43,http://app.capitalbikeshare.com/vIiR/zVsfTIsOTF?station_id=472,32067,472,2011,2,700711,7007112
388,19,0,082655cc-1f3f-11e7-bf6b-3863bb334450,1,38.905368,-77.065149,Potomac & M St NW,42,http://app.capitalbikeshare.com/vIiR/zVsfTIsOTF?station_id=473,31295,473,3008,3,000202,0002023
389,23,0,08265638-1f3f-11e7-bf6b-3863bb334450,1,38.924088,-77.040787,Columbia & Ontario Rd NW,42,http://app.capitalbikeshare.com/vIiR/zVsfTIsOTF?station_id=474,31296,474,3003,3,003900,0039003
390,15,0,32a59636-02e5-4c53-a437-020986923dca,1,38.888282000000004,-77.11106600000001,Washington-Liberty High School / N Stafford St & Generals Way,41,http://app.capitalbikeshare.com/vIiR/zVsfTIsOTF?station_id=475,31920,475,1000,1,101402,1014021
391,15,0,7a00f0f5-f757-4715-9e89-58253ac36de0,1,38.858523999999996,-77.103728,Columbia Pike & S Taylor St,41,http://app.capitalbikeshare.com/vIiR/zVsfTIsOTF?station_id=477,31923,477,3004,3,102302,1023023
392,11,0,9029233f-84db-4f28-895d-8ecf727fb6d2,1,39.126,-77.1673,Columbus Ave & Tribeca St,43,http://app.capitalbikeshare.com/vIiR/zVsfTIsOTF?station_id=478,32068,478,2012,2,700711,7007112
393,11,0,de5bd592-0f48-4c6a-b7fc-8ff687c6e1a5,1,39.123329999999996,-77.16486,Columbus Ave & Gramercy Blvd,43,http://app.capitalbikeshare.com/vIiR/zVsfTIsOTF?station_id=479,32069,479,2012,2,700711,7007112
394,15,0,686c82c2-23fe-4c15-9c75-708f61de98c7,1,38.96420774,-77.35428035,Reston Pkwy & Spectrum Dr,104,http://app.capitalbikeshare.com/vIiR/zVsfTIsOTF?station_id=480,32225,480,1000,1,482203,4822031
395,11,0,1b55b8fa-73d6-4076-98e5-9f177d22958e,1,39.105641999999996,-77.20385999999999,Key West Ave & Great Seneca Hwy,43,http://app.capitalbikeshare.com/vIiR/zVsfTIsOTF?station_id=481,32070,481,3013,3,700817,7008173
396,19,0,bce02846-6f5e-466a-a643-50534a119533,1,38.8995,-77.05415500000001,Virginia Ave & 25th St NW,42,http://app.capitalbikeshare.com/vIiR/zVsfTIsOTF?station_id=482,31297,482,2008,2,005600,0056002
397,19,0,7fcbf92d-a257-4973-828b-181d5602eee5,1,38.905424,-77.034674,15th & M St NW,42,http://app.capitalbikeshare.com/vIiR/zVsfTIsOTF?station_id=483,31298,483,2002,2,010100,0101002
398,19,0,cd1394fa-9d06-4665-bd1c-d7580d97a550,1,38.925636,-77.027112,11th & Girard St NW,42,http://app.capitalbikeshare.com/vIiR/zVsfTIsOTF?station_id=484,31126,484,3001,3,003600,0036003
399,19,0,a2507ccc-aca1-48b2-a6a3-a3144ad92d21,1,38.912644,-77.04564,Connecticut Ave & R St NW,42,http://app.capitalbikeshare.com/vIiR/zVsfTIsOTF?station_id=485,31299,485,1001,1,005500,0055001
400,19,0,ad6ec1ce-db22-47c1-acf3-507897d40725,1,38.936298,-77.087128,American University East Campus,42,http://app.capitalbikeshare.com/vIiR/zVsfTIsOTF?station_id=487,31320,487,3000,3,000801,0008013
401,19,0,99e66f13-6f03-4872-9f34-bcd92fe519fd,1,38.892244,-77.033234,15th St & Constitution Ave NW,42,http://app.capitalbikeshare.com/vIiR/zVsfTIsOTF?station_id=488,31321,488,1027,1,006202,0062021
402,17,0,c86133d2-9cb8-42bd-84e9-c65f17736421,1,38.899104,-77.048946,22nd & H St NW,42,http://app.capitalbikeshare.com/vIiR/zVsfTIsOTF?station_id=489,31127,489,3001,3,010800,0108003
403,19,0,5b745524-d0d3-4197-8c69-0ad4e5761883,1,38.905303,-77.050264,23rd & M St NW,42,http://app.capitalbikeshare.com/vIiR/zVsfTIsOTF?station_id=490,31128,490,3003,3,005500,0055003
404,15,0,58c07d78-f78e-4215-8548-7b0f37bafc73,1,39.106971,-77.192645,Corporate Blvd & Omega Dr,43,http://app.capitalbikeshare.com/vIiR/zVsfTIsOTF?station_id=491,32071,491,1016,1,700817,7008171
405,11,0,fe1f5f98-892e-4c51-b842-3d32c9f0b4ab,1,39.106152,-77.202354,Key West Ave & Diamondback Dr,43,http://app.capitalbikeshare.com/vIiR/zVsfTIsOTF?station_id=492,32072,492,3013,3,700817,7008173
406,19,0,a6076d62-317a-40be-80a3-5654a042c20a,1,38.846270000000004,-76.98185,Alabama Ave & Stanton Rd SE / Shops at Park Village,42,http://app.capitalbikeshare.com/vIiR/zVsfTIsOTF?station_id=493,31813,493,1003,1,007304,0073041
407,19,0,72b359a7-f70e-4b97-aaf6-2b26f09f19b1,1,38.84377,-76.97556999999999,Mississippi Ave & 19th St SE / THEARC,42,http://app.capitalbikeshare.com/vIiR/zVsfTIsOTF?station_id=494,31814,494,3005,3,007409,0074093
408,11,0,d61b3881-e324-4c6d-aa92-849716c70b04,1,38.84623,-76.97703,19th & Savannah St SE,42,http://app.capitalbikeshare.com/vIiR/zVsfTIsOTF?station_id=495,31815,495,3000,3,007409,0074093
409,19,0,8083cb0d-c3a4-417e-b46e-afe6cf1a7e67,1,38.836,-77.0009,4th St & Mississippi Ave SE,42,http://app.capitalbikeshare.com/vIiR/zVsfTIsOTF?station_id=496,31816,496,2000,2,009803,0098032
410,15,0,d72b1790-0fea-4af8-9d2a-fd4d4db24d1a,1,38.82373,-77.00223000000001,Livingston Rd & 3rd St SE,42,http://app.capitalbikeshare.com/vIiR/zVsfTIsOTF?station_id=498,31818,498,1002,1,009810,0098101
411,19,0,7c46ff05-4fca-44e6-a50b-acbc57e8100b,1,38.81909,-77.01033000000001,Joliet St & MLK Ave SW/Bald Eagle Rec Ctr,42,http://app.capitalbikeshare.com/vIiR/zVsfTIsOTF?station_id=499,31819,499,2002,2,010900,0109002
412,15,0,ee2cb739-9118-4069-b4f7-435ef53db537,1,38.883010999999996,-76.949709,37th & Ely Pl SE,42,http://app.capitalbikeshare.com/vIiR/zVsfTIsOTF?station_id=500,31715,500,2000,2,009901,0099012
413,15,0,f33b7c9d-11ff-4059-94e4-4a1206acd7a6,1,38.88044,-77.02523599999999,Maine Ave & 9th St SW,42,http://app.capitalbikeshare.com/vIiR/zVsfTIsOTF?station_id=505,31646,505,2034,2,010200,0102002
414,19,0,6d5ad96d-a704-4fa6-8b65-3ac643c5aa93,1,38.915,-77.0078,Lincoln Rd & Seaton Pl NE/Harry Thomas Rec Center,42,http://app.capitalbikeshare.com/vIiR/zVsfTIsOTF?station_id=506,31523,506,1000,1,008701,0087011
415,15,0,ce78d5f4-486a-4a64-8518-5a10bfd7ef94,1,39.04313,-77.05006,Blueridge Ave & Elkin St,44,http://app.capitalbikeshare.com/vIiR/zVsfTIsOTF?station_id=507,32073,507,2004,2,703209,7032092
416,19,0,568a84a6-8911-48aa-8ad4-9a1b46564e9d,1,38.95674,-77.02790999999999,Georgia Ave & Kennedy St NW,42,http://app.capitalbikeshare.com/vIiR/zVsfTIsOTF?station_id=508,31415,508,5002,5,002101,0021015
417,19,0,7814989b-dc73-4a7e-bd23-f716b9abbbfe,1,38.89222,-76.99602,7th St & Massachusetts Ave NE,42,http://app.capitalbikeshare.com/vIiR/zVsfTIsOTF?station_id=509,31647,509,1016,1,008302,0083021
418,19,0,5fdaa766-383e-4a92-b1bd-0e71138c6844,1,38.87335,-76.9834,Anacostia Park,42,http://app.capitalbikeshare.com/vIiR/zVsfTIsOTF?station_id=510,31820,510,5002,5,007601,0076015
419,14,0,e581e0b6-51ea-416a-9ae7-6fe5219d7156,1,39.062041,-77.120776,Twinbrook Metro,43,http://app.capitalbikeshare.com/vIiR/zVsfTIsOTF?station_id=511,32074,511,1009,1,700904,7009041
420,25,0,eda4c5ee-faf7-4dae-b135-3065deb46ffe,1,39.04753,-77.11287,White Flint Metro,43,http://app.capitalbikeshare.com/vIiR/zVsfTIsOTF?station_id=512,32075,512,3001,3,701216,7012163
421,15,0,97506e92-1d23-4396-8ec8-e1901ccc22fa,1,39.049,-77.10933,Citadel Ave & McGrath Blvd,43,http://app.capitalbikeshare.com/vIiR/zVsfTIsOTF?station_id=513,32076,513,3001,3,701216,7012163
422,15,0,68bb0313-ccdb-4930-98ba-96d77ec986ef,1,39.049765,-77.11368,Rockville Pike & Old Georgetown Rd,43,http://app.capitalbikeshare.com/vIiR/zVsfTIsOTF?station_id=514,32077,514,4001,4,701216,7012164
423,16,0,f69c2ab2-8d2b-493a-9da4-3a76d0e34753,1,39.04317,-77.1135,Woodglen Dr & Executive Blvd,43,http://app.capitalbikeshare.com/vIiR/zVsfTIsOTF?station_id=515,32078,515,5004,5,701213,7012135
424,15,0,3ced143d-294e-4050-80a7-b40d76c42c0d,1,39.04873,-77.1257,Executive Blvd & E Jefferson St,43,http://app.capitalbikeshare.com/vIiR/zVsfTIsOTF?station_id=516,32079,516,2024,2,701205,7012052
425,15,0,66cac629-904e-4186-8431-44983be40985,1,39.0629,-77.113454,Fishers Ln & Rock Creek Mill Rd,43,http://app.capitalbikeshare.com/vIiR/zVsfTIsOTF?station_id=517,32080,517,1000,1,701219,7012191
426,15,0,305ce636-23c1-42f3-a28b-8be4feca2e05,1,39.06219,-77.129235,Congressional Ln & E Jefferson St,43,http://app.capitalbikeshare.com/vIiR/zVsfTIsOTF?station_id=518,32081,518,1008,1,700905,7009051
427,15,0,a3761e59-db36-4b61-8bb3-8d523af69b96,1,39.000479999999996,-77.00076999999999,Garland Ave & Walden Rd,44,http://app.capitalbikeshare.com/vIiR/zVsfTIsOTF?station_id=519,32082,519,2000,2,702301,7023012
428,13,0,730f282a-2f5b-4fda-b82f-5c94b3d5a2a6,1,38.92245,-77.23034,Greensboro & Pinnacle Dr,104,http://app.capitalbikeshare.com/vIiR/zVsfTIsOTF?station_id=520,32227,520,2032,2,480202,4802022
429,15,0,987decdd-577d-4614-a6eb-307944a634b4,1,38.908390999999995,-76.84326300000001,1301 McCormick Dr / Wayne K. Curry Admin Bldg,133,http://app.capitalbikeshare.com/vIiR/zVsfTIsOTF?station_id=521,32400,521,1034,1,803514,8035141
430,17,0,29b65d73-fc99-42e3-9007-2175402a5c56,1,38.899811,-76.844604,Largo Town Center Metro,133,http://app.capitalbikeshare.com/vIiR/zVsfTIsOTF?station_id=522,32401,522,1009,1,803514,8035141
431,17,0,3c8cebaf-4155-47d8-8272-9d65831f33b8,1,38.969581,-76.937349,Baltimore Ave & Van Buren St / Riverdale Park Station,133,http://app.capitalbikeshare.com/vIiR/zVsfTIsOTF?station_id=523,32402,523,2073,2,807102,8071022
432,15,0,5efd5ecc-a734-4e7b-9142-a500a317df60,1,38.95548,-76.94013299999999,Baltimore Ave & Jefferson St,133,http://app.capitalbikeshare.com/vIiR/zVsfTIsOTF?station_id=524,32403,524,1007,1,806300,8063001
433,15,0,068e6359-1741-4240-9ed1-07a9038bc319,1,38.936213,-76.960054,Perry & 35th St,133,http://app.capitalbikeshare.com/vIiR/zVsfTIsOTF?station_id=525,32404,525,3011,3,804700,8047003
434,15,0,b053927b-0761-40d0-a3ff-8a63fa1c7141,1,39.050539,-77.115212,Rockville Pike & Meeting St,43,http://app.capitalbikeshare.com/vIiR/zVsfTIsOTF?station_id=526,32083,526,2000,2,701216,7012162
435,23,0,21858490-7495-4942-b0eb-5e956db26b16,1,38.87020105,-77.0108369,Potomac Ave & Half St SW,42,http://app.capitalbikeshare.com/vIiR/zVsfTIsOTF?station_id=527,31648,527,2008,2,006400,0064002
436,11,0,df99ffaa-cd98-41ae-993b-fac559981677,1,38.848304,-77.05122,Crystal Dr & Potomac Ave,41,http://app.capitalbikeshare.com/vIiR/zVsfTIsOTF?station_id=529,31925,529,3001,3,103402,1034023
437,15,0,5945c731-a300-46e6-8e51-3236ad1f65f2,1,38.88994,-76.825535,Largo Rd & Campus Way / Prince Georges's Comm Col,133,http://app.capitalbikeshare.com/vIiR/zVsfTIsOTF?station_id=530,32405,530,3003,3,803513,8035133
438,19,0,e07eed7c-2d2a-4f13-aff7-2be6500958f7,1,38.917304,-77.09629,48th Pl & MacArthur Blvd NW,42,http://app.capitalbikeshare.com/vIiR/zVsfTIsOTF?station_id=533,31322,533,4014,4,000801,0008014
439,19,0,eda09ed8-ca5e-4187-938c-3260cabdf82d,1,38.969489,-77.033509,14th & Luzon St NW,42,http://app.capitalbikeshare.com/vIiR/zVsfTIsOTF?station_id=534,31416,534,1004,1,001803,0018031
440,15,0,d4e8307d-5fb2-4ece-a66a-1522b1ebf79c,1,38.782633000000004,-77.016059,Fleet St & Waterfront St,133,http://app.capitalbikeshare.com/vIiR/zVsfTIsOTF?station_id=536,32406,536,3034,3,801404,8014043
441,15,0,ccd82461-11b7-4553-b70b-6cb7e5e4f8c2,1,38.798749,-77.00103,Oxon Hill Park & Ride,133,http://app.capitalbikeshare.com/vIiR/zVsfTIsOTF?station_id=537,32407,537,1001,1,801404,8014041
442,19,0,1e19ca16-ec12-48b9-bbbe-fe878745bb23,1,38.93165,-77.028305,11th & Park Rd NW,42,http://app.capitalbikeshare.com/vIiR/zVsfTIsOTF?station_id=538,31651,538,1000,1,003000,0030001
443,19,0,9a93cdb5-bd4e-43b8-87f3-81dc9063999f,1,38.876751,-77.000736,4th & M St SE,42,http://app.capitalbikeshare.com/vIiR/zVsfTIsOTF?station_id=539,31652,539,2022,2,007200,0072002
444,19,0,c645ddde-0156-47ab-9616-3121f541a6f0,1,38.948057,-77.021467,Kansas Ave & Sherman Cr NW,42,http://app.capitalbikeshare.com/vIiR/zVsfTIsOTF?station_id=540,31417,540,2001,2,002201,0022012
445,11,0,3c6a1bf0-3aac-4406-990d-966cc8edca52,1,38.944707,-77.335425,Campus Commons,104,http://app.capitalbikeshare.com/vIiR/zVsfTIsOTF?station_id=541,32228,541,1033,1,482400,4824001
446,11,0,a826e5d0-8ee8-41a4-8c1d-1a2ad7212dec,1,38.92755,-77.226644,Park Run & Onyx Dr,104,http://app.capitalbikeshare.com/vIiR/zVsfTIsOTF?station_id=542,32229,542,2001,2,480202,4802022
447,19,0,a0d0ec92-ebda-436a-b476-7ee9a7bdb67d,1,38.902674,-77.021392,7th & K St NW,42,http://app.capitalbikeshare.com/vIiR/zVsfTIsOTF?station_id=543,31653,543,2007,2,004701,0047012
448,19,0,99ddcd49-1312-4d80-8030-9bc2732deb5c,1,38.876211,-77.012443,King Greenleaf Rec Center,42,http://app.capitalbikeshare.com/vIiR/zVsfTIsOTF?station_id=544,31654,544,1006,1,006400,0064001
449,19,0,a07bd5e0-5136-4285-ae23-54a74124957e,1,38.907444,-76.986813,Montello Ave & Holbrook Terr NE,42,http://app.capitalbikeshare.com/vIiR/zVsfTIsOTF?station_id=545,31524,545,1003,1,008804,0088041
450,19,0,06a14329-dedb-4152-b237-e59afccd8d42,1,38.901934999999995,-76.978627,Maryland Ave & 17th St NE,42,http://app.capitalbikeshare.com/vIiR/zVsfTIsOTF?station_id=547,31656,547,2000,2,008904,0089042
451,19,0,880978b9-5084-4576-a206-8d94cdbf4427,1,38.892934000000004,-76.998273,Massachusetts Ave & 6th St NE,42,http://app.capitalbikeshare.com/vIiR/zVsfTIsOTF?station_id=548,31657,548,1002,1,008200,0082001
452,23,0,efe6a4e1-5900-46d6-9755-db074f87c5c2,1,38.923389,-77.051833,Woodley Park Metro / Calvert St & Connecticut Ave NW,42,http://app.capitalbikeshare.com/vIiR/zVsfTIsOTF?station_id=549,31323,549,2002,2,000501,0005012
453,19,0,6ffb5d30-d3f4-462b-8182-c552bebc9310,1,38.92378088,-77.20790550000001,McLean Metro,104,http://app.capitalbikeshare.com/vIiR/zVsfTIsOTF?station_id=550,32230,550,2022,2,471202,4712022
454,19,0,d0a82ee8-e718-4598-aa5e-dda9292c248c,1,38.906299,-76.983221,Trinidad Rec Center,42,http://app.capitalbikeshare.com/vIiR/zVsfTIsOTF?station_id=551,31525,551,2009,2,008804,0088042
455,19,0,92dd5072-b877-45d6-ba24-c5acbe66733b,1,38.897808000000005,-76.97963399999999,Rosedale Rec Center,42,http://app.capitalbikeshare.com/vIiR/zVsfTIsOTF?station_id=552,31658,552,1003,1,007901,0079011
456,19,0,3f1dfbbd-7b34-4efd-91a3-60acad4cf42f,1,38.885908,-76.991476,11th & C St SE,42,http://app.capitalbikeshare.com/vIiR/zVsfTIsOTF?station_id=553,31659,553,2009,2,006700,0067002
457,19,0,89263cc9-13f6-4185-b315-5164c9bb930e,1,38.951596,-77.01280799999999,New Hampshire & Gallatin St NW,42,http://app.capitalbikeshare.com/vIiR/zVsfTIsOTF?station_id=554,31418,554,1004,1,002202,0022021
458,19,0,5f0f9566-90d4-431e-9b6d-994e26d20ec6,1,38.835737,-76.983144,United Medical Center,42,http://app.capitalbikeshare.com/vIiR/zVsfTIsOTF?station_id=555,31823,555,1012,1,007304,0073041
459,19,0,101824b5-2dd0-464c-bc7e-30481e00e6d7,1,38.911268,-77.041829,18th & New Hampshire Ave NW,42,http://app.capitalbikeshare.com/vIiR/zVsfTIsOTF?station_id=556,31324,556,2003,2,005301,0053012
460,15,0,27d919c7-7fda-41d1-9c05-2f537d5c4ce2,1,38.9546,-76.9595,Queens Chapel & Hamilton St,133,http://app.capitalbikeshare.com/vIiR/zVsfTIsOTF?station_id=563,32410,563,3002,3,806100,8061003
461,15,0,3dd9e864-a5fc-4c27-b18e-325226089293,1,38.975505,-76.952199,Northwestern High School,133,http://app.capitalbikeshare.com/vIiR/zVsfTIsOTF?station_id=564,32411,564,1000,1,805908,8059081
462,15,0,ae00650a-be2d-4912-8f0d-8338b3754eed,1,38.974205,-76.995227,New Hampshire Ave & East-West Hwy,133,http://app.capitalbikeshare.com/vIiR/zVsfTIsOTF?station_id=565,32412,565,2000,2,805202,8052022
463,15,0,199df30f-328b-48af-8627-952bd9d6fe7c,1,38.939271000000005,-76.955047,Rhode Island Ave & 39th St / Brentwood Arts Exchange,133,http://app.capitalbikeshare.com/vIiR/zVsfTIsOTF?station_id=566,32413,566,2039,2,804600,8046002
464,17,0,f0d65475-a505-474b-a40f-2488459105ac,1,38.9725,-76.9807,Riggs Rd & East West Hwy,133,http://app.capitalbikeshare.com/vIiR/zVsfTIsOTF?station_id=567,32414,567,1006,1,805202,8052021
465,15,0,fc64c842-980f-40be-a4b6-7750a28ecc19,1,38.7968,-77.0026,Tanger Outlets,133,http://app.capitalbikeshare.com/vIiR/zVsfTIsOTF?station_id=568,32415,568,1001,1,801404,8014041
466,15,0,fbd404e2-bd4c-464b-b0db-9eaa011a90ae,1,38.961737,-76.995922,Chillum Rd & Riggs Rd / Riggs Plaza,133,http://app.capitalbikeshare.com/vIiR/zVsfTIsOTF?station_id=569,32416,569,2015,2,805000,8050002
467,15,0,bcb21167-85ed-4374-8807-d9409aaa01a5,1,38.9698,-76.9493,Hyattsville Library / Adelphi Rd & Toledo Rd,133,http://app.capitalbikeshare.com/vIiR/zVsfTIsOTF?station_id=570,32417,570,2010,2,805908,8059082
468,15,0,08247aa4-1f3f-11e7-bf6b-3863bb334450,1,38.8963,-77.045,20th & E St NW,42,http://app.capitalbikeshare.com/vIiR/zVsfTIsOTF?station_id=26,31204,26,2009,2,010800,0108002
469,35,0,0824c80d-1f3f-11e7-bf6b-3863bb334450,1,38.902060999999996,-77.038322,17th & K St NW / Farragut Square,42,http://app.capitalbikeshare.com/vIiR/zVsfTIsOTF?station_id=106,31233,106,1023,1,010700,0107001
470,15,0,082469cc-1f3f-11e7-bf6b-3863bb334450,1,38.858971000000004,-77.05323,Eads St & 15th St S,41,http://app.capitalbikeshare.com/vIiR/zVsfTIsOTF?station_id=1,31000,1,2000,2,103503,1035032
471,23,0,0824773f-1f3f-11e7-bf6b-3863bb334450,1,38.923203,-77.047637,Calvert & Biltmore St NW,42,http://app.capitalbikeshare.com/vIiR/zVsfTIsOTF?station_id=20,31106,20,3000,3,004001,0040013
472,11,0,08247ed8-1f3f-11e7-bf6b-3863bb334450,1,38.86022669,-76.9665724,Good Hope & Naylor Rd SE,42,http://app.capitalbikeshare.com/vIiR/zVsfTIsOTF?station_id=34,31700,34,2018,2,007604,0076042
473,39,0,082484cf-1f3f-11e7-bf6b-3863bb334450,1,38.8743,-77.0057,1st & N St  SE,42,http://app.capitalbikeshare.com/vIiR/zVsfTIsOTF?station_id=45,31209,45,2063,2,007200,0072002
474,15,0,0824866e-1f3f-11e7-bf6b-3863bb334450,1,38.85438052,-77.05341159999999,Eads St & 22nd St S,41,http://app.capitalbikeshare.com/vIiR/zVsfTIsOTF?station_id=48,31013,48,2001,2,103602,1036022
475,45,0,0824920a-1f3f-11e7-bf6b-3863bb334450,1,38.9101,-77.0444,Massachusetts Ave & Dupont Circle NW,42,http://app.capitalbikeshare.com/vIiR/zVsfTIsOTF?station_id=51,31200,51,1007,1,005500,0055001
476,15,0,082495aa-1f3f-11e7-bf6b-3863bb334450,1,38.944551000000004,-77.063896,Van Ness Metro / UDC,42,http://app.capitalbikeshare.com/vIiR/zVsfTIsOTF?station_id=60,31300,60,4000,4,001200,0012004
477,15,0,08249cd3-1f3f-11e7-bf6b-3863bb334450,1,38.894919,-77.046587,US Dept of State / Virginia Ave & 21st St NW,42,http://app.capitalbikeshare.com/vIiR/zVsfTIsOTF?station_id=74,31220,74,1045,1,006202,0062021
478,15,0,08249d44-1f3f-11e7-bf6b-3863bb334450,1,38.886266,-77.02224100000001,L'Enfant Plaza / 7th & C St SW,42,http://app.capitalbikeshare.com/vIiR/zVsfTIsOTF?station_id=75,31218,75,2010,2,010200,0102002
479,19,0,08249e81-1f3f-11e7-bf6b-3863bb334450,1,38.884,-76.995397,Eastern Market Metro / Pennsylvania Ave & 7th St SE,42,http://app.capitalbikeshare.com/vIiR/zVsfTIsOTF?station_id=78,31613,78,2004,2,007000,0070002
480,23,0,0824a4ce-1f3f-11e7-bf6b-3863bb334450,1,38.905737,-77.02226999999999,Convention Center / 7th & M St NW,42,http://app.capitalbikeshare.com/vIiR/zVsfTIsOTF?station_id=84,31223,84,2000,2,004902,0049022
481,23,0,0824a703-1f3f-11e7-bf6b-3863bb334450,1,38.894758,-76.997114,D St & Maryland Ave NE,42,http://app.capitalbikeshare.com/vIiR/zVsfTIsOTF?station_id=89,31612,89,1013,1,008302,0083021
482,11,0,0824a988-1f3f-11e7-bf6b-3863bb334450,1,38.916441999999996,-77.0682,34th St & Wisconsin Ave NW,42,http://app.capitalbikeshare.com/vIiR/zVsfTIsOTF?station_id=90,31226,90,1000,1,000100,0001001
483,33,0,0824b9cc-1f3f-11e7-bf6b-3863bb334450,1,38.8997,-77.02308599999999,8th & H St NW,42,http://app.capitalbikeshare.com/vIiR/zVsfTIsOTF?station_id=92,31228,92,1014,1,005800,0058001
484,23,0,0824bc70-1f3f-11e7-bf6b-3863bb334450,1,38.899972,-76.998347,6th & H St NE,42,http://app.capitalbikeshare.com/vIiR/zVsfTIsOTF?station_id=95,31615,95,1001,1,008302,0083021
485,31,0,0824e68d-1f3f-11e7-bf6b-3863bb334450,1,38.88412,-77.04656999999999,Ohio Dr & West Basin Dr SW / MLK & FDR Memorials,42,http://app.capitalbikeshare.com/vIiR/zVsfTIsOTF?station_id=124,31240,124,1070,1,006202,0062021
486,15,0,0824e72a-1f3f-11e7-bf6b-3863bb334450,1,38.897857,-77.026975,11th & F St NW,42,http://app.capitalbikeshare.com/vIiR/zVsfTIsOTF?station_id=125,31262,125,1031,1,005800,0058001
487,11,0,0824fb6c-1f3f-11e7-bf6b-3863bb334450,1,38.8904,-77.0889,Wilson Blvd & N Franklin Rd,41,http://app.capitalbikeshare.com/vIiR/zVsfTIsOTF?station_id=138,31020,138,2021,2,101500,1015002
488,15,0,082514b8-1f3f-11e7-bf6b-3863bb334450,1,38.912719,-77.022155,7th & R St NW / Shaw Library,42,http://app.capitalbikeshare.com/vIiR/zVsfTIsOTF?station_id=145,31245,145,1000,1,004901,0049011
489,19,0,082516c1-1f3f-11e7-bf6b-3863bb334450,1,38.917761,-77.04061999999999,California St & Florida Ave NW,42,http://app.capitalbikeshare.com/vIiR/zVsfTIsOTF?station_id=149,31116,149,2006,2,003800,0038002
490,15,0,082518eb-1f3f-11e7-bf6b-3863bb334450,1,38.896544,-76.96011999999999,Anacostia Ave & Benning Rd NE / River Terrace,42,http://app.capitalbikeshare.com/vIiR/zVsfTIsOTF?station_id=152,31708,152,1000,1,009604,0096041
491,19,0,08251984-1f3f-11e7-bf6b-3863bb334450,1,38.905126,-77.056887,M St & Pennsylvania Ave NW,42,http://app.capitalbikeshare.com/vIiR/zVsfTIsOTF?station_id=153,31246,153,4031,4,000100,0001004
492,23,0,08251d5a-1f3f-11e7-bf6b-3863bb334450,1,38.9024,-77.02622,10th & K St NW,42,http://app.capitalbikeshare.com/vIiR/zVsfTIsOTF?station_id=159,31263,159,1024,1,010100,0101001
493,15,0,082521d3-1f3f-11e7-bf6b-3863bb334450,1,38.884734,-77.093485,Washington Blvd & 10th St N,41,http://app.capitalbikeshare.com/vIiR/zVsfTIsOTF?station_id=167,31026,167,1013,1,101801,1018011
494,15,0,08253a4b-1f3f-11e7-bf6b-3863bb334450,1,38.810743,-77.044664,Saint Asaph St & Pendleton  St,40,http://app.capitalbikeshare.com/vIiR/zVsfTIsOTF?station_id=191,31043,191,4023,4,201801,2018014
495,15,0,08253b95-1f3f-11e7-bf6b-3863bb334450,1,38.805648,-77.05293,Commerce St & Fayette St,40,http://app.capitalbikeshare.com/vIiR/zVsfTIsOTF?station_id=194,31045,194,2014,2,201900,2019002
496,23,0,08253cdb-1f3f-11e7-bf6b-3863bb334450,1,38.805766999999996,-77.06071999999999,King St Metro South,40,http://app.capitalbikeshare.com/vIiR/zVsfTIsOTF?station_id=197,31048,197,2026,2,201900,2019002
497,11,0,08254a91-1f3f-11e7-bf6b-3863bb334450,1,38.8444,-77.085931,Four Mile Run Dr & S Shirlington Rd,41,http://app.capitalbikeshare.com/vIiR/zVsfTIsOTF?station_id=220,31057,220,2015,2,103100,1031002
498,11,0,082564e2-1f3f-11e7-bf6b-3863bb334450,1,38.84322989,-76.99937582,Alabama & MLK Ave SE,42,http://app.capitalbikeshare.com/vIiR/zVsfTIsOTF?station_id=239,31800,239,1011,1,010400,0104001
499,15,0,08256a59-1f3f-11e7-bf6b-3863bb334450,1,38.887378000000005,-77.00195500000001,3rd St & Pennsylvania Ave SE,42,http://app.capitalbikeshare.com/vIiR/zVsfTIsOTF?station_id=247,31269,247,1012,1,006600,0066001
500,15,0,0825962a-1f3f-11e7-bf6b-3863bb334450,1,39.123513,-77.15741,Needwood Rd & Eagles Head Ct,43,http://app.capitalbikeshare.com/vIiR/zVsfTIsOTF?station_id=279,32018,279,2002,2,700711,7007112
501,21,0,0825aa94-1f3f-11e7-bf6b-3863bb334450,1,39.095661,-77.159048,Montgomery College / W Campus Dr & Mannakee St,43,http://app.capitalbikeshare.com/vIiR/zVsfTIsOTF?station_id=284,32023,284,3004,3,701004,7010043
502,15,0,0825b10b-1f3f-11e7-bf6b-3863bb334450,1,38.975,-77.01120999999999,Carroll & Westmoreland Ave,44,http://app.capitalbikeshare.com/vIiR/zVsfTIsOTF?station_id=286,32025,286,1001,1,701701,7017011
503,15,0,0825b42a-1f3f-11e7-bf6b-3863bb334450,1,39.076331,-77.141378,Fleet St & Ritchie Pkwy,43,http://app.capitalbikeshare.com/vIiR/zVsfTIsOTF?station_id=293,32032,293,1000,1,701001,7010011
504,11,0,0825ba12-1f3f-11e7-bf6b-3863bb334450,1,38.898536,-76.931862,Nannie Helen Burroughs Ave & 49th St NE,42,http://app.capitalbikeshare.com/vIiR/zVsfTIsOTF?station_id=303,31710,303,1006,1,007804,0078041
505,15,0,0825c063-1f3f-11e7-bf6b-3863bb334450,1,38.94113916,-77.06197724,Connecticut Ave & Tilden St NW,42,http://app.capitalbikeshare.com/vIiR/zVsfTIsOTF?station_id=314,31313,314,4010,4,001200,0012004
506,19,0,0825f723-1f3f-11e7-bf6b-3863bb334450,1,38.901755,-77.051084,New Hampshire Ave & 24th St NW,42,http://app.capitalbikeshare.com/vIiR/zVsfTIsOTF?station_id=336,31275,336,4000,4,005600,0056004
507,15,0,0825f9b6-1f3f-11e7-bf6b-3863bb334450,1,38.820932,-77.053096,Monroe Ave & Leslie Ave,40,http://app.capitalbikeshare.com/vIiR/zVsfTIsOTF?station_id=342,31087,342,3009,3,201300,2013003
508,15,0,0825fd09-1f3f-11e7-bf6b-3863bb334450,1,38.997653,-77.034499,Spring St & 2nd Ave,44,http://app.capitalbikeshare.com/vIiR/zVsfTIsOTF?station_id=350,32050,350,2002,2,702800,7028002
509,19,0,0826030a-1f3f-11e7-bf6b-3863bb334450,1,38.902814,-77.06104300000001,31st & Water St NW,42,http://app.capitalbikeshare.com/vIiR/zVsfTIsOTF?station_id=365,31293,365,4023,4,000100,0001004
510,15,0,08260472-1f3f-11e7-bf6b-3863bb334450,1,38.86612,-77.08787,Walter Reed Dr & 8th St S,41,http://app.capitalbikeshare.com/vIiR/zVsfTIsOTF?station_id=368,31096,368,3006,3,102500,1025003
